FIRM,ADDRESS,lat,lon
3M,"905 Adams Street, Hutchinson, Minnesota, USA",44.88169800000001,-94.3604312
3M,"577 Keumeui-ri, Jangan-myon, Hwaseong, Gyeonggi-Do, Korea",37.199465,126.831263
3M,"1425 Stokke Parkway, Menomonie, Wisconsin, USA",44.9009399,-91.8842116
3M,"235 Zhongyuan Road, Suzhou, Jiangsu, China",31.3235978,120.780686
3M,"No. 312, Section 1, Huandong Road, Sinshih Township, Tainan, Taiwan",23.1000361,120.2856783
3M,"5500 Oaza Osanagi, Higashine, Yamagata, Japan",38.4152096,140.4099149
3M,"3406 E. Pleasant Street, Knoxville, Iowa, USA",41.31998189999999,-93.0650431
3M,"1030 Lake Road, Medina, Ohio, USA",41.1142305,-81.89358589999999
AAC Technologies Holdings Inc.,"Building 5, 6th floor, Nanyou Tianan Industry Park, Dengliang Road, NanShan District, Shenzhen, Guangdong, China",22.5103725,113.9265484
AAC Technologies Holdings Inc.,"No. 8 Fengqi Road, High Tech. Industry Development Area, Wujin District, Changzhou, Jiangsu, China",31.661726,119.947418
AAC Technologies Holdings Inc.,"No. 66 Yanghuxi Road, Wujin District, Changzhou, Jiangsu, China",31.6977436,120.1007102
"Advanced International Multitech Co., Ltd","Building F, Pengjinghui Industrial Park, No. 52 Tenth Road, Long Yean Village, Humen Town, Dongguan, Guangdong, China",22.814704,113.672784
"Advanced International Multitech Co., Ltd","No. 2 South 5th Road, K.E.P.Z. Kaohsiung, Taiwan",22.6272784,120.3014353
Advanced Semiconductor Engineering Inc.,"76 Saneopdanji-gil, Paju, Gyeonggi-Do, Korea",37.7277826,126.7136247
Advanced Semiconductor Engineering Inc.,"26 Chin 3rd Road, Nantze Export Processing Zone, Kaohsiung, Taiwan",22.7175372,120.3031871
Advanced Semiconductor Engineering Inc.,"1F, 550 Chung-Hwa Road, Section 1, Chungli, Taoyuan, Taiwan",24.9721514,121.2053963
Advanced Semiconductor Engineering Inc.,"1F, No. 115 Nei-Huan North Road, Nantze Export Processing Zone, Kaohsiung, Taiwan",22.7239579,120.2997379
Advanced Semiconductor Engineering Inc.,"No. 107 Neihuan N. Road, Nanzi District, Kaohsiung, Taiwan",22.7239579,120.2997379
Advanced Semiconductor Engineering Inc.,"73 Kai Fa Road, Nantze Export Processing Zone, Kaohsiung, Taiwan",22.719774,120.300447
Advanced Semiconductor Engineering Inc.,"No. 501 Longgui Road, Jinqiao Export Processing (South) Zone, Pudong New Area, Shanghai, China",31.2249658,121.6839174
Advanced Semiconductor Engineering Inc.,"No. 1558 Zhang Dong Road, Zhangjiang Hi-Tech Park, Shanghai, China",31.190315,121.588315
"Taiyo Yuden Co., Ltd.","Lot 977, Block 12, Sama Jaya Free Industrial Zone, Kuching, Sarawak, Malaysia",1.5196032,110.4051689
"Taiyo Yuden Co., Ltd.","1-1 Chikumazawahigashi, Miyoshi-machi, Iruma-gun, Saitama, Japan",35.8221156,139.5517084
"Taiyo Yuden Co., Ltd.","43-1 Yawatabara-machi, Takasaki, Gunma, Japan",36.2979929,139.0926861
"Taiyo Yuden Co., Ltd.","6-16-3 Shinmachi, Ome-shi, Tokyo, Japan",35.7922133,139.3207087
TDK Corp.,"1F, 9 Prosperity 1st Road, Hsinchu, Taiwan",24.8138287,120.9674798
TDK Corp.,"1 West Industrial Road, North Industrial Park, SongShan Lake, Dongguan, Guangdong, China",22.8963606,113.8897043
TDK Corp.,"No. 1 XingGang Road, ZhangWan Town, Ningde, Fujian, China",27.164832,120.42042
TDK Corp.,"689 Zhen An Road, Conrad Hi-Tech Park, Changan Town, Dongguan, Guangdong, China",22.7846814,113.7993993
TDK Corp.,"130 Aza Juninomae, Konoura, Nikaho, Akita, Japan",39.2490592,139.9166822
TDK Corp.,"99-19 Aza-Meiji, Oaza-Miyaumi, Sakata, Yamagata, Japan",38.9501269,139.8385333
TDK Corp.,"146-1 Haraikawa, Ohuchi-Sankawa, Yurihonjo, Akita, Japan",39.4469921,140.1116705
TDK Corp.,"97 Aza Aburada, Yamada, Tsuruoka, Yamagata, Japan",38.7595427,139.7944493
TDK Corp.,"No. 16 Tonghe Rd, Pingdu City, Qingdao, Shandong, China",36.7386148,119.9368862
TDK Corp.,"No. 68 West Huaihe Road, Dalian Economic & Technical Development Zone, Dalian, Liaoning, China",39.064331,121.789041
TDK Corp.,"No. 321-339 Tongi South Road, Jimei District, Xiamen, Fujian, China",24.6081235,118.1175148
TDK Corp.,"160 Miyazawa, Minami Alps, Yamanashi, Japan",35.5843892,138.473624
TDK Corp.,"106-163, 2 Goto, Waga-machi, Kitakami, Iwate, Japan",39.2879988,141.0410586
TDK Corp.,"1-6 Manganji, Yurihonjo-city, Yurihonjo, Akita, Japan",39.3503893,140.0864392
TDK Corp.,"Lianfeng Lu, Free Trade Zone, Zhuhai, Guangdong, China",22.270978,113.576677
TDK Corp.,"2435 Alpine Road, Eau Claire, Wisconsin, USA",44.8393241,-91.53993
Texas Instruments Inc.,"2 Takaku-Kogyodanchi, Aizuwakamatsu, Fukushima, Japan",37.5431311,139.8807569
Texas Instruments Inc.,"Haggertystrasse 1, Freising, Bavaria, Germany",48.39778,11.77214
Texas Instruments Inc.,"2350 Kihara Miho-mura, Inashiki-gun, , Miho, Ibaraki, Japan",36.0205216,140.2996147
Texas Instruments Inc.,"3601 Alma Road, Richardson, Texas, USA",32.9659351,-96.7171508
Texas Instruments Inc.,"13353 TI Blvd. Dock 3, Dallas, Texas, USA",32.9256056,-96.7502493
Texas Instruments Inc.,"13353 TI Blvd. Dock 7, Dallas, Texas, USA",32.9256056,-96.7502493
Texas Instruments Inc.,"Clark Freeport Zone, Gil Puyat Avenue, Angeles, Pampanga, Philippines",15.1883443,120.5377436
The Chemours Company,"Route 130, Salem, New Jersey, USA",39.6805546,-75.4924292
The Chemours Company,"Baanhoekweg 22, Dordrecht, Netherlands",51.8153327,4.727121599999999
The Chemours Company,"1201 Olmstead Lane, Cortland, Ohio, USA",34.2389243,-77.83639310000001
The Chemours Company,"7685 Kiln-DeLisle Road, Pass Christian, Missouri, USA",38.353141,-92.747022
The Chemours Company,"DuPont Road, New Johnsonville, Tennessee, USA",36.0384797,-87.97124749999999
ThreeBond Group,"1252-1 Hattori, Osafune-cho, Setouchi, Okayama, Japan",34.6998095,134.0989834
ThreeBond Group,"1-1 Oyama-cho, Midori-ku, Sagamihara, Kanagawa, Japan",35.584263,139.3608328
TLG Investment (Hk) Ltd.,"No. 128 Xue Dian North Road, Wuxi, Jiangsu, China",31.913307,120.261682
TLG Investment (Hk) Ltd.,"Plant 1-3 , No. 15 Lijiang Road, Wuxi New District, Wuxi, Jiangsu, China",31.52786,120.383668
"Shenzhen YUTO Packaging Technology Co., Ltd.","No. 682 ChongAn Road, Economic Development Zone, Chong Zhou City, Chengdu, Sichuan, China",30.6217803,103.7054896
"Shenzhen YUTO Packaging Technology Co., Ltd.","No. 1 Shihuan Road, Shuitian Industrial Area, Shilongzai, Shiyan Town, Shenzhen, Guangdong, China",22.706473,113.966807
"Shenzhen YUTO Packaging Technology Co., Ltd.","No. 468 LuChang Road, ShiPu District, QianDeng Town, Kunshan, Jiangsu, China",31.2239269,121.0463205
"Shenzhen YUTO Packaging Technology Co., Ltd.","Que Vo Industrial Park, Phuong Lieu Ward, Bac Ninh, Vietnam",21.1526138,106.1217074
"Shenzhen YUTO Packaging Technology Co., Ltd.","Industry Hatch Area, Zhongduan Industry Cluster District, Weiwu Road, Changge, Henan, China",34.2904302,113.3823545
"Shenzhen YUTO Packaging Technology Co., Ltd.","No. 190 Gongxiang Road, Qiandeng Town, Kunshan, Jiangsu, China",31.5593237,120.705714
"Shenzhen YUTO Packaging Technology Co., Ltd.","No. 125 Lianhe Road, Qiandeng Town, Kunshan, Jiangsu, China",31.265162,121.026285
"Shenzhen YUTO Packaging Technology Co., Ltd.","Plot No. 56 &57 , Bommasandra-Jigani Link Road Induatrial Area, Bandenallasandra Village, Jigani Hobli, Anekal Taluk , Bangalore Urban District, Bangalore, Karnataka, India",13.0,77.583333
"Shin Zu Shing Co., Ltd.","No. 174 Jyunying Street, Shulin District, Taipei, Taiwan",24.9815605,121.4198606
"Simplo Technology Co., Ltd.","No. 2 Dongnan Avenue, Changshu, Jiangsu, China",31.603577,120.825165
SK Hynix Inc.,"V2-4/02 Plot, Xiyong Comprehensive Bonded Area. B zone, Shapingba, Chongqing, China",29.600238,106.374496
SK Hynix Inc.,"215 Daesin-ro, Heungdeok-gu, Cheongju, Chungcheongbuk-Do, Korea",36.6519908,127.4308588
SK Hynix Inc.,"Lot K7, Wuxi Export Processing Zone, Wuxi, Jiangsu, China",31.5388079,120.3808345
SK Hynix Inc.,"2091 Gyeongchung-daero, Bubal-eub, Icheon, Gyeonggi-Do, Korea",37.250125,127.4834936
Skyworks Solutions Inc.,"3 Bedok South Road, Singapore",1.3205285,103.9285312
Skyworks Solutions Inc.,"1006 Kadoma, Kadoma, Osaka, Japan",34.73837839999999,135.5741425
Skyworks Solutions Inc.,"1-2-150 Hirabayashi-Kita, Osaka, Japan",34.7053617,135.5100252
Skyworks Solutions Inc.,"2427 West Hillcrest Drive, Newbury Park, California, USA",34.1869454,-118.9278259
Skyworks Solutions Inc.,"Calzada Gomez Morin 1690, Col. Rivera CP, Mexicali, Baja California, Mexico",32.6353959,-115.4149712
Skyworks Solutions Inc.,"No. 6 Da-Li 1st Road, Tainan Science-Based Industrial Park, Hsin-shi, Tainan, Taiwan",22.9997281,120.2270277
Skyworks Solutions Inc.,"20 Sylvan Road, Woburn, Massachusetts, USA",42.4993304,-71.1645583
SMK Corp.,"1-1 Yasuuchi, Yatsuo-Machi, Toyama, Japan",36.61103,137.137439
SMK Corp.,"1st East Turning, Zhenxing Road, Gaobu Town, Dongguan, Guangdong, China",23.0742459,113.7243012
SMK Corp.,"1-5 Floor, Section 3 Bldg 1, Honghualing Industrial South area, Xili Town, Nanshan District, Shenzhen, Guangdong, China",22.581996,113.960769
SMK Corp.,"20-9 Ishi, Juo-Cho, Hitachi, Ibaraki, Japan",36.671375,140.68598
"Solvay Specialty Polymers USA, LLC","17005 State Route 7, Marietta, Ohio, USA",39.3719667,-81.5149862
"Solvay Specialty Polymers USA, LLC","Jiangsu High-Tech Fluorochemical Industrial Park, Haiyu Town, Changshu, Jiangsu, China",31.650448,120.758775
"Solvay Specialty Polymers USA, LLC","Industriepark de Bruwaan 9, 9700, Oudenaarde, Belgium",50.858406,3.5888682
Sony Corp.,"1883-43 Tsukubamachi, Isahaya, Nagasaki, Japan",32.8194921,130.0019802
Sony Corp.,"1-11-73 Takarada, Tsuruoka, Yamagata, Japan",38.74472859999999,139.8364265
Sony Corp.,"5-1 Noguchi Kita, Kokubu, Kirishima-shi, Kagoshima, Japan",31.7408988,130.7629974
STMicroelectronics N.V.,"Via C. Olivetti 2, Agrate, Brianza, Italy",45.5717962,9.3636238
STMicroelectronics N.V.,"850 rue Jean Monnet, Crolles, France",45.26710689999999,5.8844946
STMicroelectronics N.V.,"190 Avenue Celestin Coq Zone Industrielle, Rousset, France",43.4737301,5.6049479
STMicroelectronics N.V.,"16 Tao Hua Road, Futian Free Trade Zone, Shenzhen, Guangdong, China",22.502516,114.051276
STMicroelectronics N.V.,"No. 9 Mountain Drive, Light Industry & Science Park II, La Mesa, Calamba, Laguna, Philippines",14.149132,121.164286
STMicroelectronics N.V.,"Industrial center Muar, Tanjong Agas Industrial Area PO Box 28, 84007, Muar, Johor, Malaysia",2.052722,102.5629092
STMicroelectronics N.V.,"629 Lorong 4/6, Toa Payoh, Singapore",1.3319424,103.8517287
Stora Enso,"No. 1299 Feng’an Road, Qian’an, Hebei, China",39.998934,118.719439
Stora Enso,"LvHua North Road, DiYong Village, Gaobu Town, Dongguan, Guangdong, China",23.0894274,113.7326964
Stora Enso,"No. 28 Wuyi Road, Jiashan, Zhejiang, China",30.8489719,120.9679842
Sumida Corp.,"Tai Xin Road, Humen Town, Dongguan, Guangdong, China",22.8076169,113.67845
Sumida Corp.,"Electronic Information Industrial Pioneer Park, Deshan Economic Development District, changde, Hunan, China",28.95634,111.694586
"Sumitomo Chemical Co., Ltd.","1-1 Ooe, Niihama, Ehime, Japan",33.96028950000001,133.2833512
"Sumitomo Chemical Co., Ltd.","61 Xinmei Road, Bin Hu Qu, Wuxi, Jiangsu, China",31.50379,120.411766
Sumitomo Electric Industries Ltd.,"C-6 Thsnh Long Industrial Park, Dong Anh District, Hanoi, Vietnam",21.1238301,105.7777442
Sumitomo Electric Industries Ltd.,"Light Industry & Science Park, 1 Special Export Processing Zone, Bo. Diezmo., Cabuyao, Laguna, Philippines",14.160170,121.140067
Sumitomo Electric Industries Ltd.,"Bldg B, No. 20 Song Tang Road, Tong Fu Yu Industrial Area, Tang Xia Chong, Songgang, Bao’an, Shenzhen, Guangdong, China",22.7997344,113.8451126
Sumitomo Electric Industries Ltd.,"30 Hinokigaoka, Minakuchi-Cho, Kouga-shi, Shiga, Japan",34.99542,136.1571345
"Sunonwealth Electric Machine Industry Co., Ltd.","168 Nanbang Road, Kunshan, Jiangsu, China",31.392291,121.007881
Sunrex Technology Corp.,"No. 508 Guo Dao Road, Fenhu Economic Development Zone, Luxu Town, Wujiang, Jiangsu, China",31.056198,120.8502212
"Sunwoda Electronics Co., Ltd.","No. 2 Yihe Road, Shilong Community, Shiyan Street, Bao’an District, Shenzhen, Guangdong, China",25.5787726,91.8932535
"Suzhou Anjie Technology Co., Ltd.","No. 8 Fujin Road, Guangfu Town, Wuzhong District, Suzhou, Jiangsu, China",31.277928,120.402331
TLG Investment (Hk) Ltd.,"10th Jingba Road, Economic Development Zone, Dong Tai, Jiangsu, China",32.881011,120.3830219
TLG Investment (Hk) Ltd.,"No. 8 (6-10) Changping Road, Huangdai Town, Xiangcheng District, Suzhou, Jiangsu, China",31.4254614,120.5007688
TLG Investment (Hk) Ltd.,"Building A, FengMenAo Technology Park, FengMen Road, BanTian, LongGang District, Shenzhen, Guangdong, China",22.6652515,114.0656169
TLG Investment (Hk) Ltd.,"No. 2 Yuyuan Road No. 1, Yuyuan Indusctrial Park, Huang Jiang, Dongguan, Guangdong, China",22.892264,113.999078
TLG Investment (Hk) Ltd.,"No. 529 Siwei Road Economic Development Zone Chongzhou, Chengdu, Sichuan, China",30.584935,103.703641
TLG Investment (Hk) Ltd.,"No. 2988 Taidong Road, Huangdai Town, Xiangcheng District, Suzhou, Jiangsu, China",31.4353261,120.5931421
TLG Investment (Hk) Ltd.,"Songgang Songfu Road, Manhole District, Sha Pu Wei Stone Leading East Park, Shenzhen, Guangdong, China",22.770126,113.851562
Toda Kogyo Corp.,"Hengdian Industrial Area Dongyang, China, Dongyang, Zhejiang, China",29.157657,120.289116
Toda Kogyo Corp.,"1-4 Meiji-Shingai, Otake, Hiroshima, Japan",34.2488427,132.2271829
Toray International Inc.,"1-1 Sonoyama 1-chome, Otsu, Shiga, Japan",34.9781367,135.8924543
Toray International Inc.,"900-1, Oaza-Yasutsugu, Godo-cho, Anpachi Gun, Gifu, Japan",35.4293054,136.6056062
Toray International Inc.,"4845 Mishima, Mishima, Shizuoka, Japan",35.11840249999999,138.9185126
Toray International Inc.,"No. 19 Chen Jiang Avenue (South), Chen Jiang Street, Huizhou, Guangdong, China",23.112257,114.415801
Toshiba Corp.,"760, Oaza Kutsugawa, Buzen, Fukuoka, Japan",33.6205716,131.1459247
Toshiba Corp.,"1-1 Iwauchi-machi, Nomi, Ishikawa, Japan",36.4534764,136.566882
Toshiba Corp.,"300 Ikaruga, Taishi-cho, Ibo-Gun, Hyogo, Japan",34.8353855,134.5776657
Toshiba Corp.,"3500 Oaza Matsuoka, Oita, Japan",33.2395578,131.609272
Toshiba Corp.,"800 Yamonoisshiki-Cho, Yokkaichi, Mie, Japan",35.0196915,136.6049879
"Toyo Rikagaku Kenkyusho Co., Ltd.","777 Honghu Road, Kunshan Economic & Technical Development Zone, Kunshan, Jiangsu, China",31.3507029,121.0694778
"Toyo Rikagaku Kenkyusho Co., Ltd.","No. 188 Gao Ding Road., Kunshan Economic & Technical Development Zone, Kunshan, Jiangsu, China",31.349997,121.063306
"Toyo Rikagaku Kenkyusho Co., Ltd.","No. 1448 Honghu Road, KunShan Economic & Technical Development Zone, Kunshan, Jiangsu, China",31.3509103,121.0551032
"Toyoda Gosei Co., Ltd.","710 Origuchi, Shimomiyake, Heiwa, Inazawa, Aichi, Japan",35.22061,136.756428
"Toyoda Gosei Co., Ltd.","9966-9 Kawako, Oaza, Wakaki-cho, Takeo, Saga, Japan",33.1947237,130.0215086
"Toyoda Gosei Co., Ltd.","5-1 Yawata Kaigan-dori, Ichihara, Chiba, Japan",35.5333056,140.1135724
"TPK Holding Co., Ltd.","No. 199 Ban Shang Road, Information & Photoelectricity Park of Xiamen Torch Hi-Tech Industrial Development Zone, Xiamen, Fujian, China",30.47629,114.403671
Trinseo LLC,"No. 17 Renjen Road, Hsinchu Ind. Park, Hukou, Hsinchu, Taiwan",24.8729605,121.0113775
Triotek Technology Inc.,"No. 5 Huanshi North Road, Tangxia Town, Dongguan, Guangdong, China",22.8147801,114.0925199
Advanced Semiconductor Engineering Inc.,"No. 188 Su Hong Xi Road, Suzhou Industrial Park, Suzhou, Jiangsu, China",31.3448098,120.503269
"Alps Electric Co., Ltd.","136-1 Kitahara, Furukawatsukanome, Osaki, Miyagi, Japan",38.586314,140.9378839
"Alps Electric Co., Ltd.","6-3-36 Furukawa Nakazato, Osaki, Miyagi, Japan",38.5866922,140.9483136
"Alps Electric Co., Ltd.","No. 5 Xingchuang 4 Road, Singapore Industrial Park, Wuxi, Jiangsu, China",31.535593,120.375515
"Alps Electric Co., Ltd.","P.T. 10643 Nilai Industrial Estate, Nilai, Negeri Sembilan, Malaysia",2.831737,101.8141618
"Alps Electric Co., Ltd.","6-1 Nishida, Kakuda, Miyagi, Japan",37.9770628,140.7819901
"Alps Electric Co., Ltd.","1-3-5 Higashi Takami, Nagaoka, Niigata, Japan",37.4462652,138.8512772
"Alps Electric Co., Ltd.","230 Shibue, Wakuya-cho, Tohda-gun, Miyagi Prefecture, Tohda-gun, Miyagi, Japan",38.5391456,141.1209789
Amkor Technology Inc.,"No. 39 GuangFu North Road, Hsinchu Industrial Park, Hsinchu, Taiwan",24.8742968,121.0308245
Amkor Technology Inc.,"No. 111 Yinglun Road Waigaoqiao Free Trade Zone, Shanghai, China",31.349964,121.588425
Amkor Technology Inc.,"119 North Science Avenue, Special Economic Zone, Laguna Techno Park, Binan, Laguna, Philippines",14.2740357,121.0528596
Amkor Technology Inc.,"110 Anaji-ro, Gyeyang-gu, Incheon, Korea",37.52481849999999,126.7039023
Amkor Technology Inc.,"957 Daechon-dong, Buk-gu, Gwangju, Gyeonggi-Do, Korea",35.2316456,126.8543697
Amkor Technology Inc.,"No. 11 GuangFu Road, Hsinchu Industrial Park, Hsinchu, Taiwan",24.7818907,121.0206022
Amkor Technology Inc.,"Mirae-ro 150, Songdo, Incheon, Korea",37.4527576,126.7044778
Amkor Technology Inc.,"1F, No. 1 Kao-Ping Sec Chung-Feng Road, Lungtan Township, Taoyuan, Taiwan",24.8444927,121.2053963
Amkor Technology Inc.,"1 Ohmaki, Harue-Cho, Harue, Fukui, Japan",36.129042,136.228583
Amkor Technology Inc.,"145-1, Aza-Nakajima, Nanae-cho, Kameda, Hokkaido, Japan",41.867454,140.7060994
Amphenol Corp.,"No. 98-5 Road 19, Hangzhou Economic and Technological Development Zone, Hangzhou, Zhejiang, China",30.274084,120.15507
Amphenol Corp.,"No. 689 Shennan Road, Xin Zhuang Industry Park, Shanghai, China",31.072971,121.380838
Amphenol Corp.,"Block A3/A4, DongKeng Road, GongMing Town, Shenzhen, Guangdong, China",22.7546704,113.9170597
Amphenol Corp.,"825 Old Trail Road, Etters, Pennsylvania, USA",40.16033230000001,-76.818936
ams AG,"B2-1D Carmelray Industrial Park II, Barangay Tulo, Calamba, Laguna, Philippines",14.1732678,121.1295505
ams AG,"Tobelbaderstrasse 30, Unterpremstaetten, Styria, Austria",46.9755645,15.3950842
ams AG,"26 Woodlands Loop, Level 1, Singapore",1.448434,103.811756
ams AG,"7000 Ang Mo Kio Avenue 5, Singapore",1.377628,103.8727152
Analog Devices Inc.,"Gateway Business Park, Javalera, Gen. Trias, Cavite, Philippines",14.2607058,120.9196942
Apollo Global Management LLC,"190 Yishun Avenue, Singapore",1.440684,103.836587
Apollo Global Management LLC,"No. 3, Lintang Bayan Lepas 8, Kawasan Perindustrian Bayan Lepas, Fasa 4, Mukim 12, Bayan Lepas, Penang, Malaysia",5.2943257,100.2839756
Artesyn Embedded Technologies Inc.,"No. 68 Baocheng E. Road, Fucheng Town, Luoding, YunFu, Guangdong, China",22.70548,111.370567
Artesyn Embedded Technologies Inc.,"Main Avenue Corner Road J, PEZA Complex, Rosario, Cavite, Philippines",14.4167095,120.8539543
"Asahi Glass Co., Ltd.","SAHA Group Industrial Park Lamphun 99/39 Moo 5, T. Pasak, Muang Lamphun, Thailand",18.4812708,98.8932159
"Asahi Glass Co., Ltd.","1-8 Machiikedai, Koriyama, Fukushima, Japan",37.441962,140.3078344
"Asahi Glass Co., Ltd.","5-6-1 Umei, Takasago, Hyogo, Japan",34.7638314,134.7700025
"Asahi Glass Co., Ltd.","BE-2400 Mol, Brussels, Belgium",51.21900979999999,5.093685499999999
"Asahi Glass Co., Ltd.","11 Qisan Road, Haitian Industrial Garden, Shenzhen Export Processing District, Pingshan New Zone, Shenzhen, Guangdong, China",22.71123,114.355466
Asia Vital Components Ltd.,"No. 5 Lane 8, RongJiang Road, Songjiang Export Processing Zone, Shanghai, China",31.015831,121.293328
Asia Vital Components Ltd.,"West Industry Park, XinYang Industrial Zone, Shajing Town, Bao’an District, Shenzhen, Guangdong, China",32.147679,114.091192
Asia Vital Components Ltd.,"Jin Xi Zhen Jin Road, No. 188 Building 9, Kunshan, Jiangsu, China",31.38559699999999,120.980736
AT & S Austria Technologie & Systemtechnik AG,"No. 58 Chang He Road, Yuzui Town, Jiangbei District, Chongqing, China",29.6308312,106.7568755
AT & S Austria Technologie & Systemtechnik AG,"No. 5000 Jindu Road, Shanghai, China",31.08674419999999,121.4125087
Biel Crystal Manufactory Ltd.,"Biel Crystal Industrial Park, TangJing Village, Baishi, QiuChang Town, Huiyang District, Huizhou, Guangdong, China",22.632293,114.201841
"BOE Technology Group Co., Ltd.","No. 668 Longzihu Road, Heifei, Anhui, China",31.9452891,117.339267
"Boyd Die Cut Co., Ltd.","8 Xindu Road, Singapore-Industrial-Park, Wuxi, Jiangsu, China",31.527748,120.3876
"Boyd Die Cut Co., Ltd.","No. 1 Building Runheng Industrial Park, 67 Zone of Baocheng, Liuxian 2nd Road, Bao’an District, Shenzhen, Guangdong, China",22.7553117,113.8568875
Brilliant International Group Ltd.,"Qiao Tou, 1 Industrial District, Lou Cun Community Council, Gong Ming Street, Guangming, Xinqu, Shenzhen, Guangdong, China",22.780439,113.925857
Brilliant International Group Ltd.,"Building 1, Linyuan Investment Park, Intersection of Yanhe Road and Shenzhou, Xinzheng City, Zhengzhou, Henan, China",34.3900765,113.7954243
Broadcom Limited,"4380 Ziegler Road, Ft. Collins, Colorado, USA",40.52650999999999,-105.017032
Broadcom Limited,"110 American Parkway NE, Allentown, Pennsylvania, USA",40.607092,-75.46224440000002
Broadcom Limited,"Fab 12A, No. 18 Nan-Ke 2nd Road, Tainan Science Park, Tainan, Taiwan",22.9997281,120.2270277
"BYD Co., Ltd.","No. 1 BaoPing Road, Baolong Industrial Town, Long Gang, Shenzhen, Guangdong, China",22.6840121,114.2777564
"BYD Co., Ltd.","Xiangshui River, Economic Development Zone, Daya Bay, Huizhou, Guangdong, China",22.7202833,114.5363753
"Career Technology (Mfg.) Co., Ltd.","248 Bo’ai Street, Shulin District, Taipei, Taiwan",24.9850038,121.4233061
"Career Technology (Mfg.) Co., Ltd.","No. 18 Jin Sha Jiang South Road, Kunshan, Jiangsu, China",31.3781033,120.9547683
"Catcher Technology Co., Ltd.","No. 21 Gucheng Road, Suzhou-Suqian Industrial Park, Suqian, Jiangsu, China",33.938429,118.195733
"Catcher Technology Co., Ltd.","XiangTai Road West Side, Lion River South Side, Economic Development Zone, Taizhou, Jiangsu, Guangdong, China",32.455536,119.922933
"Catcher Technology Co., Ltd.","East of Xiangtai Road, North of Haijun West Road, Economic Development Zone, Taizhou, Jiangsu, China",32.423966,119.874858
"Cathay Tat Ming Precision Metal Products Co., Ltd.","No. 5 Furong 3rd Road, Xishan Economic Development Zone, Wuxi, Jiangsu, China",31.6316301,120.3861423
"Cathay Tat Ming Precision Metal Products Co., Ltd.","No. 2 Section A, Bai’gong’ao Industrial Zone, Xikeng Xinwei Sector, Fumin, Guanlan, Bao’an, Shenzhen, Guangdong, China",22.696848,114.045389
"Cathay Tat Ming Precision Metal Products Co., Ltd.","Yuyuan 4 Road, Yuyuan Industrial Zone, Huangjiang Town, Dongguan, Guangdong, China",22.888887,114.00751
Cheng Loong Corp.,"Dong Yie Street, Industry District, Houjie Town, Dongguan, Guangdong, China",22.935289,113.670324
Cheng Loong Corp.,"888 Fuyan Road, Weishi County, Kaifeng, Henan, China",34.411494,114.193081
Cheng Loong Corp.,"No. 48 Teng Feng 3rd Road, Chengdu, Sichuan, China",30.572815,104.066801
Cheng Loong Corp.,"No. 1 Tengfei 11 Road, Southwest Air Harbor Development Economic Zone, Chengdu, Sichuan, China",30.506058,103.980824
Cheng Loong Corp.,"399 Xiupu Road, Kangqiao Industrial Zone, Nanhai District, Shanghai, China",31.147678,121.54984
Cheng Loong Corp.,"No. 98 B Zone, Gui Lin Road, Kunshan, Jiangsu, China",31.3284186,120.9993065
"Cheng Uei Precision Industry Co., Ltd. (Foxlink)","Industry Street, DongKeng, Dongguan, Guangdong, China",22.995838,113.933872
"Cheng Uei Precision Industry Co., Ltd. (Foxlink)","Junda Industry Disctict, DongKeng, Dongguan, Guangdong, China.",23.102927,113.790503
"Cheng Uei Precision Industry Co., Ltd. (Foxlink)","No. 6 Zhengwei Road, Jinxi Town, Kunshan, Jiangsu, China",31.1878848,120.9549348
"Cheng Uei Precision Industry Co., Ltd. (Foxlink)","8th Long Keng Industry District, QianMei Road, DongKeng, Dongguan, Guangdong, China",22.98488,113.92141
"Cheng Uei Precision Industry Co., Ltd. (Foxlink)","No. 1 Xinfeng Street, Chang Long Village, Huang Jiang Town, Dongguan, Guangdong, China",23.010719,113.744072
"Chengdu Homin Technology Co., Ltd.","No. 265 Tengfei Avenue, Qingyang District, Chengdu, Sichuan, China",30.687368,103.955777
China Circuit Technology (Shantou) Corp.,"Wanji Industrial District, Longhu, Shantou, Guangdong, China",23.4306188,116.7122463
Coilcraft Inc.,"Bac Chu Lai Industrial Park, Chu Lai Open Economic Zone, Tam Hiep, Nui Thanh, Quang Nam, Vietnam",15.4469551,108.6086561
Coilcraft Inc.,"Putian Village, Xiyang Town, Meizhou, Guangdong, China",24.278757,116.201716
Coilcraft Inc.,"Jln Aster, Lot SD37-38, Lobam, Bintan, Indonesia",1.00736,104.2570841
Coilcraft Inc.,"No. 5 Guangtonnan Road, Dongfeng West Street, Weinan, Shanxi, China",35.1420237,111.2198608
Compal Electronics Inc.,"No. 68-2 Suyuan Road, Nanjing Export Processing Zone (South Area), Nanjing, Jiangsu, China",31.886462,118.810353
Compal Electronics Inc.,"No. D05, Zone D, Air Port Section of LiangLu CunTan Free Trade port Area, YuBei District, Chongqing, China",29.622586,106.59283
"Compeq Manufacturing Co., Ltd.","4D Block, Suchun Industrial Square, No. 428 Xinglong Street, Suzhou Industrial Park, Suzhou, Jiangsu, China",31.330027,120.804204
"Compeq Manufacturing Co., Ltd.","No. 21 Panlong Road, Lidu Industrial Park, Fuling district, Chongqing, China",29.7254812,107.236315
"Compeq Manufacturing Co., Ltd.","No. 168 Huguang Road, Huzhen Town, Boluo County, Huizhou, Guangdong, China",23.2428438,114.1495011
"Compeq Manufacturing Co., Ltd.","No. 91 Lane 814, Ta Hsin Road, Shin Chuang Village, Lu Chu Hsiang, Taoyuan, Taiwan",24.9936281,121.3009798
Corning Inc.,"680 E. Office Street, Harrodsburg, Kentucky, USA",37.7576524,-84.829747
Corning Inc.,"12117 Obuchi, Kakegawa, Shizuoka, Japan",34.6795471,137.9971585
Corning Inc.,"No. 33 Section 2, HaunDong Road, Tainan Science Based Industrial Park, Tainan, Taiwan",23.2774211,120.3123203
Corning Inc.,"212, Tangjeong-ro, Tangjeong-myeon, Asan, Chungcheongnam-do, Korea",36.813074,127.0571048
Cosmosupplylab Ltd.,"Middle ZhongXin Road, Xian Sha Industry, Gaobu Town, Dongguan, Guangdong, China",23.0243218,113.7994173
Cosmosupplylab Ltd.,"Bo Wang Industrial Park, Gaobu Town, Dongguan, Guangdong, China",23.090823,113.74595
Cowell E Holdings Inc.,"No. 1 Songbo Road, Huanan Industrial Area, Liaobu Town, Dongguan, Guangdong, China",23.027162,113.863942
"Coxon Precise Industrial Co., Ltd.","West No. 3 Zhong Nan South Road, Hai Bin District, Shang Sha Village Chang’an Town, Dongguan, Guangdong, China",31.2303904,121.4737021
"Coxon Precise Industrial Co., Ltd.","763 ZhenAnZhong Road, 6th Industrial District, ShangSha Villlage, Chang’an Town, Dongguan, Guangdong, China",28.228209,112.938814
"CymMetrik Enterprise Co., Ltd.","No. 168 Chuyang Road, Lujia Town, East part of Economic and Technical Development Zone, Kunshan, Jiangsu, China",31.38559699999999,120.980736
"CymMetrik Enterprise Co., Ltd.","Xinhua Road, Xingwei Community, Fuyong Street, Bao’an, Shenzhen, Guangdong, China",22.634017,113.833622
"CymMetrik Enterprise Co., Ltd.","8th Factory, Industrial Park of Weishi County, Kaifeng, Henan, China",34.411494,114.193081
"Dai-Ichi Seiko Co., Ltd.","12 Hokuryo-cho, Matsue, Shimane, Japan",35.4982146,133.0611395
"Dai-Ichi Seiko Co., Ltd.","2455-1 Takata, Chikuzen-machi, Asakura-gun, Fukuoka, Japan",33.413352,130.621496
"Dai-Ichi Seiko Co., Ltd.","55 Yishun Industrial Park A, Singapore",1.441272,103.834627
"Dai-Ichi Seiko Co., Ltd.","863 Mitsusawa, Ogori, Fukuoka, Japan",33.42781,130.5639749
"Dai-Ichi Seiko Co., Ltd.","Block 2 Woodlands Sector 1, No. 01-24 Woodlands Spectrum 1, Singapore",1.4539602,103.8066904
Daikin Industries Ltd.,"1-1 Nishi-Hitotsuya, Settsu, Osaka, Japan",34.7589846,135.5579989
Daikin Industries Ltd.,"No. 8 Jinyu Road (West) Advanced Materials Industrial, Changshu, Jiangsu, China",31.7783673,120.8189178
Daikin Industries Ltd.,"21 Sunayama, Kamisu, Ibaraki, Japan",35.8600465,140.7222581
Darfon Electronics Corp.,"21 Industry 2nd Road, Tainan, Taiwan",22.9997281,120.2270277
Darfon Electronics Corp.,"No. 99 Zhuyuan Road, New District, Suzhou, Jiangsu, China",31.28216,120.568688
Delta Group,"No. 168 Jishi East Road & No. 688 Xiuhu West Road, Wujiang Economic & Technological Development Zone, Suzhou, Jiangsu, China",31.1751076,120.6940461
Delta Group,"No. 688 Xiuhu West Road, Song Ling Town, Suzhou, Jiangsu, China",31.156145,120.664214
Delta Group,"Chen Zhou Export Processing Zone, Bai Lu Tang Town, Su Xian District, Chenzhou, Hunan, China",25.920843,113.209099
Delta Group,"Wellgrow Industrial Estate, 111 Moo 9, Soi 11, Bangna-Trad Road, Tambol Bangwua, Bang Pakong, Chachoengsao, Thailand",13.5709085,100.9222622
Delta Group,"1688 Jiangxing East Road, Wujiang Economy Development Zone, Wujiang, Jiangsu, China",31.1797902,120.6755052
Dexerials Corp.,"Ha-86 Akai-machi, Nomi, Ishikawa, Japan",36.4585807,136.4929914
Dexerials Corp.,"18 Satuki-cho, Kanuma-shi, Tochigi, Japan",36.548783,139.76597
Dexerials Corp.,"3-4-1 Sakuragi, Tagajo-shi, Miyagi, Japan",38.2883985,141.0133158
Dexerials Corp.,"1724 Shimotsuboyama, Shimotsuke-shi, Tochigi, Japan",36.3694011,139.8760571
Diodes Inc.,"Waldweg 7, Neuhaus am Rennweg, Thuringia, Germany",50.5052086,11.1327341
Diodes Inc.,"Zetex Technology Park, Chadderton, Oldham, United Kingdom",53.5422561,-2.1393249
Diodes Inc.,"Plant No. 1, Lane 18, San Zhuang Road, Songjiang Export Zone, Shanghai, China",31.014966,121.293314
Diodes Inc.,"No. 8 Kexin Road, Chengdu Hi-Tech Zone (West Park), Chengdu, Sichuan, China",30.763953,103.924997
Diodes Inc.,"777 N.W. Blue Parkway, Suite 350, Lee’s Summit, Missouri, USA",38.9316568,-94.39767429999999
Diodes Inc.,"No. 999 Chenchun Road, Xinqiao Town, Songjiang District, Shanghai, China",31.0719723,121.3343508
"DSM Engineering Plastics Co., Ltd.","Urmonderbaan 22, Geleen, Netherlands",50.9882984,5.7849683
"DSM Engineering Plastics Co., Ltd.","Eerste Bokslootweg 17, Emmen, Netherlands",52.7748058,6.906880399999999
"DSM Engineering Plastics Co., Ltd.","No. 18 Pan Long Shan Road, Jiangyin, Jiangsu, China",31.8456951,120.4848202
Dynapack International Technology Corp.,"No. 8 Hua-Gang Road, Wujiang Economic and Technological Development Zone, Suzhou, Jiangsu, China",31.17991199999999,120.675472
Ellington Electronics Technology Group,"88 Gao Ping Chemical & Industrial Zone, San Jiao Town, Zhongshan, Guangdong, China",22.676245,113.418215
FIT Hon Teng Ltd.,"37 Street, Dinh Tram Industry Zone, Viet Yen, Bac Giang, Vietnam",21.25474,106.126945
FIT Hon Teng Ltd.,"No. 168 Fushikang Road, Huai’an Economic Development Zone, Huai’an, Jiangsu, China",33.5966985,119.1492118
FIT Hon Teng Ltd.,"No. 889 Fushikang Road, High Technology Industry Park, Kunshan Development Zone, Kunshan, Jiangsu, China",31.4173916,120.9600197
FIT Hon Teng Ltd.,"Baoyuan Technology Area, DaShuiKeng, GuanLan Town, Longhua New Distict, Shenzhen, Guangdong, China",22.59197,114.287139
Flexium Interconnect Inc.,"No. 23 Juguang 1st Sreet, Tafa Industrial Park, Daliao District, Kaohsiung, Taiwan",22.5804829,120.4238478
Flexium Interconnect Inc.,"No. 1399, Hanpu Road, Hi-Tech Industrial Park, Kunshan, Jiangsu, China",31.419932,120.969361
Flextronics Sales and Marketing (A-P) Ltd.,"12455 Research Blvd., Austin, Texas, USA",30.4316953,-97.7550117
Flextronics Sales and Marketing (A-P) Ltd.,"6380 East Holmes Road, Memphis, Tennessee, USA",35.007134,-89.850793
Flextronics Sales and Marketing (A-P) Ltd.,"Avenida Liberdade, 6315, Iporanga-Sorocaba, Sao Paulo, Brazil",-23.4280603,-47.3684334
Flextronics Sales and Marketing (A-P) Ltd.,"Plot No. 3 Phase III, SIPCOT Industrial Park, Sandavellur (Village), Sriperumbuthur, Kanchipuram, Tamilnadu, India",12.9163683,79.87888029999999
Flextronics Sales and Marketing (A-P) Ltd.,"Flextronics Industrial Zone, Shi Da Road, Da Ling Shan, Dongguan, Guangdong, China",22.9482536,113.8695462
"Foster Electric Co., Ltd.","No. 1 Street 11, VSIP Bac Ninh, Tu Son, Bac Ninh, Vietnam",21.0844898,105.9785518
"Foster Electric Co., Ltd.","Street No. 1 Hoa Cam industrial zone, Cam Le district, Da Nang, Vietnam",16.0185641,108.1694719
"Foster Electric Co., Ltd.","No. 20, VSIP II street 5, Vietnam Singapore Industrial Park II, Hoa Phu ward, Thu Dau Mot, Binh Duong, Vietnam",10.9245712,106.7136375
"Foster Electric Co., Ltd.","Building #7, No. 1 Zongbu Road, Nanning New High Technology Industrial Zone, Nanning, Guangxi, China",22.817002,108.366543
"Foster Electric Co., Ltd.","No. 8, 11 Ke Yuan Dong Road, Nanning New High Technology Industrial Zone, Nanning, Guangxi, China",22.817002,108.366543
Fujikura Ltd.,"101/2 Moo 20, Navanakorn Industrial Zone, Phaholyothin Road, Klongluang District, Khlong Luang, Pathum Thani, Thailand",14.1160773,100.6178163
Fujikura Ltd.,"Building 56A, No. 199 Riying North Road, Waigaoqiao Free Trade Zone, Shanghai, China",31.349964,121.588425
Fujikura Ltd.,"1/80 Moo 5, Rojana Industrial Park, Rojana Road, Tambol Kanham, Amphur U-Thai Pranakorn Sri, Ayutthaya, Thailand",14.3164905,100.637508
Fujikura Ltd.,"612/12, Moo 9, Kabinburi Industrial Zone, Cam Le district, Da Nang, Vietnam",13.9050107,101.7979613
Fujikura Ltd.,"Northern Region Industrial Estate, 68/1 Moo 4 Tambol, Lamphun, Thailand",18.591254,99.042782
Fujikura Ltd.,"Build A-B, No. 1411 Yecheng Road, Jiading Industrial Zone, Shanghai, China",31.252689,121.372189
Fujikura Ltd.,"14 Matsuyama-cho, Moka, Tochigi, Japan",36.4304763,139.9654131
Fujikura Ltd.,"55/25 Moo 13, Navanakorn Industrial Estate, Paholyothin Road, Klong Nueng, Khlong Luang, Pathum Thani, Thailand",14.0994968,100.6187664
Garuda International Ltd.,"Building A1-A3, Pengding Plant, Songluo Road, Yanchuan Community, Yanluo Street, Bao’an District, Shenzhen, Guangdong, China",22.7856458,113.8540856
Garuda International Ltd.,"No. 18 Tengfei Road, Economic and Technological Development Zone, Qinhuangdao, Hebei, China",39.931331,119.466157
Garuda International Ltd.,"No. 11 Honghai North Road, Huaian Economic Development Zone, Huai’an, Jiangsu, China",33.6061133,119.1501039
"Genius Electronic Optical Co., Ltd.","No. 8 Chuangxin Road, Torch Hi-tech Indsl Zone, Xiamen, Fujian, China",24.512907,118.119147
GoerTek Inc.,"No. 268 Dongfang Road, High-Tech Industrial Development Zone, Weifang, Shandong, China",36.7253308,119.165349
GoerTek Inc.,"West Changan South Road and North Tengfei Road, Yishui County, Linyi, Shandong, China",35.7547686,118.6335192
GoerTek Inc.,"Lot K-08, Que Vo industrial park, Nam Son commune, Bac Ninh, Vietnam",21.1377307,106.1816196
"Hama Naka Shoukin Industry Co., Ltd.","No. 1 Gaoding Road, Kunshan Development Zone, Kunshan, Jiangsu, China",31.36135599999999,121.061865
"HengMingDa Wrapper Co., Ltd.","No. 1568 Taji Road, Shipai Town, Kunshan, Jiangsu, China",31.5003562,120.9349789
Henkel Corp.,"No. 90 Zhu Jiang Road , Yantai Economic Technological Development Zone, Yantai, Shandong, China",37.558507,121.231168
Henkel Corp.,"167 Batchelder Road, Seabrook, New Hampshire, USA",42.8838346,-70.8848981
Henkel Corp.,"301 Washington Street, Cannon Falls, Minnesota, USA",44.5195598,-92.9041977
Henkel Corp.,"No. 524, Anji East Road, Sanzao Town, Jin Wan Qu, Zhuhai, Guangdong, China",22.0080725,113.3785933
HI-P International Ltd.,"No. 77 Jinwen Road, Zhuqiao Airport Industrial Zone, Pudong New Area, Shanghai, China",31.102472,121.778906
HI-P International Ltd.,"No. 96 and No. 102, Jinwen Road, Zhuqiao Airport Industrial Zone, Pudong New Area, Shanghai, China",31.107386,121.776223
HI-P International Ltd.,"No. 38 Jinliang Road, Pudong, Shanghai, China",31.1116225,121.77927
HI-P International Ltd.,"Blk 3 and 4, No. 955 Jinhai Road, Shanghai, China",31.2632115,121.6181888
HI-P International Ltd.,"No. 86 Liu Feng Road, Wu Zhong District, Suzhou, Jiangsu, China",31.2549764,120.6836961
"Hirose Electric Co., Ltd.","1261-10 Jeongwang-Dong, Siheung, Gyeonggi-Do, Korea",37.34860159999999,126.7271088
"Hirose Electric Co., Ltd.","2-31-1 Toyomane, Yamadacho, Shimoheigun, Miyako, Iwate, Japan",39.534107,141.9267723
"Hirose Electric Co., Ltd.","21-2 Kubota Dai-2 Chiwariaza Akamae, Miyako, Iwate, Japan",39.5795247,141.9519813
"Hirose Electric Co., Ltd.","509-36 Soejima, Fuchumachi, Toyama, Japan",36.6673104,137.1747965
"Hirose Electric Co., Ltd.","3215 Shimoizawa, Fuchumachi, Toyama, Japan",36.6673104,137.1747965
"Hirose Electric Co., Ltd.","46-3 Aza Nishi, Niida, Tagajo-shi, Miyagi, Japan",38.2943955,140.962234
"Hirose Electric Co., Ltd.","55-1 Jiwari, Tagusari, Miyako, Iwate, Japan",39.6414202,141.9571394
"Hirose Electric Co., Ltd.","63-25 Nishiura Aisaricho, Kitakami, Iwate, Japan",39.2596037,141.1079423
"Hirose Electric Co., Ltd.","191-1 Oaza Urushikawa Aza Tamatsubaki, Goshogawara, Aomori, Japan",40.8164464,140.4713817
"Hon Hai Precision Industry Co., Ltd. (Foxconn)","No. 1925 NanLe Road, Songjiang Export Processing Zone, Shanghai, China",31.024015,121.293753
"Hon Hai Precision Industry Co., Ltd. (Foxconn)","Avenida Caminho de Goiás 100, Rodovia Anhanguera km 66, Bairro dos Fernandes, Bloco B, JundiaÍ, Sao Paulo, Brazil",-23.1342703,-46.9449676
"Hon Hai Precision Industry Co., Ltd. (Foxconn)","Foxconn Longhua Technology Park, #2 2nd Donghuan Road, 10th Yousong Industrial District, Longhua Town, Bao’an, Shenzhen, Guangdong, China",22.64235,114.039085
"Hon Hai Precision Industry Co., Ltd. (Foxconn)","No. 1 Longfei Street Economy Technology Development Zone, Taiyuan, Shanxi, China",37.744543,112.585714
"Hon Hai Precision Industry Co., Ltd. (Foxconn)","Foxconn Guanlan Technology Park North site, Dashuikeng Village, Guanlan Town, Bao’an, Shenzhen, Guangdong, China",22.743227,114.023932
"Hon Hai Precision Industry Co., Ltd. (Foxconn)","No. 168 Hezuo Road, CDHT Western Park, Chengdu, Sichuan, China",30.7675471,103.911635
"Hon Hai Precision Industry Co., Ltd. (Foxconn)","No. 9 Jianye East Road, Torch Hi-Tech Development Zone, Zhongshan, Guangdong, China",22.563429,113.455477
"Hon Hai Precision Industry Co., Ltd. (Foxconn)","No. 1216 Lanhua Road, Jincheng Economic and Technology Development Zone, Jincheng, Shanxi, China",35.496121,112.881035
"Hon Hai Precision Industry Co., Ltd. (Foxconn)","Wancheng warehouse 203, No. 6 Hongmian Road, Fu-tian tax free zone, Shenzhen, Guangdong, China",22.504431,114.057634
"Hon Hai Precision Industry Co., Ltd. (Foxconn)","Longhe Technology Industry zone, Southern Construction Road, Anci District, Langfang, Hebei, China",39.502569,116.694544
"Hon Hai Precision Industry Co., Ltd. (Foxconn)","Foxconn Technology Development Zone, Hebi, Henan, China",35.748233,114.297201
"Hon Hai Precision Industry Co., Ltd. (Foxconn)","HuLing Industry Park, HuangHe River Road, Jiyuan, Henan, China",35.067243,112.601918
"Hon Hai Precision Industry Co., Ltd. (Foxconn)","No. 7 workshop, Export Processing District, No. 9 Avenue, Economy Technology Development Zone, Zhengzhou, Henan, China",34.746611,113.625328
"Hon Hai Precision Industry Co., Ltd. (Foxconn)","No. 35 Hua Bao North Road, Cheng Xi Industrial Zone, Chancheng District, Foshan, Guangdong, China",23.009434,113.122465
"Hon Hai Precision Industry Co., Ltd. (Foxconn)","13301 Park Vista Blvd., Fort Worth, Texas, USA",32.9726698,-97.2637378
"Hon Hai Precision Industry Co., Ltd. (Foxconn)","No. 299 Nan Song Road, Yu Shan Town, Kunshan, Jiangsu, China",31.3318617,120.9181512
"Hon Hai Precision Industry Co., Ltd. (Foxconn)","No. 888 Hezuo Road, Comprehensive Bonded Zone, CDHT Western Park, Chengdu, Sichuan, China",30.572815,104.066801
"Hon Hai Precision Industry Co., Ltd. (Foxconn)","No. 99 Fuxing Avenue, Xitang Town, Jiashan, Zhejiang, China",30.948121,120.894803
"Hon Hai Precision Industry Co., Ltd. (Foxconn)","No. 880 Zizhu Road, Hi-Tech Industrial Zone, Kunshan, Jiangsu, China",31.4133786,120.9597978
"Hon Hai Precision Industry Co., Ltd. (Foxconn)","No. 6, Sec. 2, Huandong Road, Xinshi District, Tainan, Taiwan",23.1052986,120.2840219
"Hon Hai Precision Industry Co., Ltd. (Foxconn)","Building 8, Foxconn Guanlan Technology Park B District, DaSan Community, Guanlan Town, Bao’an, Shenzhen, Guangdong, China",22.743227,114.023932
"Hon Hai Precision Industry Co., Ltd. (Foxconn)","No. 689 Hezuo Road, Chengdu High Technology Western Park, Chengdu, Sichuan, China",30.755842,103.922826
"Hon Hai Precision Industry Co., Ltd. (Foxconn)","Hongguan science and technology park, DaShuikeng Village, Guanlan Street, Guanlan, Shenzhen, Guangdong, China",22.59197,114.287139
"Hon Hai Precision Industry Co., Ltd. (Foxconn)","Industrial Distribution Center at Lankao County, Kaifeng, Henan, China",34.822211,114.821348
"Hon Hai Precision Industry Co., Ltd. (Foxconn)","West of JiYang Street, LanKao County, Kaifeng, Henan, China",34.822211,114.821348
"Hon Hai Precision Industry Co., Ltd. (Foxconn)","No. 2, 2nd Donghuan Road, Longhua Town, Longhua New District, Shenzhen, Guangdong, China",22.656408,114.019351
"Hon Hai Precision Industry Co., Ltd. (Foxconn)","General Bonded Zone, East Zhenxing Road, Zhengzhou Airport, Zhengzhou, Henan, China",34.2904302,113.3823545
INB Electronics Ltd.,"Chuangye Park, Taihe County, Ji’an, Jiangxi, China",26.789958,114.908872
INB Electronics Ltd.,"Building 2nd, 1st Area, Industrial Area of Huaide Cuihai, Fengtang Road, Fuyong Street, Shenzhen, Guangdong, China",22.701353,113.797537
INB Electronics Ltd.,"Xiangshuihe Industrial Area, Dayawan Development District, Huizhou, Guangdong, China",22.7157944,114.5323758
Infineon Technologies AG,"Free Trade Zone, Jalan Batu Berendam, Batu Berendam, Melaka, Malaysia",2.2424262,102.2584297
Infineon Technologies AG,"Wernerwerkstr. 2, Regensburg, Bavaria, Germany",49.0221124,12.0525083
Infineon Technologies AG,"Konigsbrucker Str. 180, Dresden, Saxony, Germany",51.10325,13.7724
Infineon Technologies AG,"Siemensstrabe 2, Villach, Oesterreich, Austria",46.5961546,13.8554691
Infineon Technologies AG,"Lot 10 & 11, Kulim Hi-Tech Park, Kedah Darul Aman, Jalan Hi-Tech 7, Industrial Zone Phase II, Kulim, Kedah, Malaysia",2.235030,102.261870
Intel Corp.,"No. 8-1 Kexin Road, High-Tech Zone (West Park), Chengdu, Sichuan, China",30.769563,103.918095
Intel Corp.,"2501 NW 229th Avenue, Hillsboro, Oregon, USA",45.5470464,-122.9138953
Intel Corp.,"Rio Rancho Blvd SE, Rio Rancho, New Mexico, USA",35.238611,-106.6564664
Intel Corp.,"4500 South Dobson Road, Chandler, Arizona, USA",33.2431262,-111.892444
Intel Corp.,"Collinstown Industrial Park, Leixlip, Ireland",53.36384280000001,-6.4900033
Intel Corp.,"New Industrial Area 2 Tzoran Street, Kiryat Gat, Israel",31.606178,34.783263
Intel Corp.,"Bayan Lepas Industrial Park IV, Penang, Malaysia",5.307376,100.2927532
Intel Corp.,"Lot I2, Saigon Hi-Tech Park, District 9, Ho Chi Minh, Binh Duong, Vietnam",10.85575,106.785939
Intel Corp.,"109 Huaihe East Road, Dalian, Liaoning, China",39.0791203,121.8850773
Intel Corp.,"Lot 8, Jalan Hi-tech 2/3, Kulim Hi-tech Park, Kulim, Kedah, Malaysia",5.422856899999999,100.58639
"Interflex Co., Ltd.","600 Sunggok-dong, Danwon-gu, Ansan, Gyeonggi-Do, Korea",37.3165428,126.7650881
Intramedia Inc.,"189 Tangzhuang Road, Suzhou Industrial Park, Suzhou, Jiangsu, China",31.3076362,120.7563057
Intramedia Inc.,"No. 11 Haiyi Road, Ching Tou Village, Chang’an Town, Dongguan, Guangdong, China",22.7960932,113.8275361
Inventec Corp.,"No. 789, Puxing Road, Minhang District, Shanghai, China",31.103979,121.507904
Jabil Circuit Inc.,"Ganpi Village, Zhenlong Town, Huiyang District, Huizhou, Guangdong, China",22.789101,114.456539
Jabil Circuit Inc.,"No. 84-2 Block B, National Hi-Tech Industrial Development Zone, Wuxi, Jiangsu, China",31.351552,119.798575
Jabil Circuit Inc.,"No. 7 Yang Qing Road, Lou Feng Demonstrative S.I.P, Suzhou, Jiangsu, China",31.335154,120.659027
Jabil Circuit Inc.,"No. 2073, Jincheng Road, Shajing Street, Bao’an District, Shenzhen, Guangdong, China",22.731814,113.817708
Jabil Circuit Inc.,"No. 21, Sai Da Shi Ji Road, Xiqing Economic Development Zone, Tianjin, China",39.141152,117.008826
Jabil Circuit Inc.,"No. 266 Sec. 1, Shen-Lin Road, Ta Ya 428, Taichung, Taiwan",24.2567018,120.6590305
Jabil Circuit Inc.,"Lot J9, J10 Export Processing Zone, Wuxi, Jiangsu, China",31.491169,120.31191
Jabil Circuit Inc.,"No. 1 Sec.3, Chuangxin Road, Chongzhou Economic Development District, Chengdu, Sichuan, China",30.5998682,103.6976668
Jabil Circuit Inc.,"No. 119, Hulin Road, Huangpu District, Guangzhou, Guangdong, China",23.115612,113.4435244
Jabil Circuit Inc.,"128 Juncheng Road, Guangzhou Economic and Technology Development Zone, Guangzhou, Guangdong, China",23.141345,113.506028
Jabil Circuit Inc.,"No. 97 National High-Tech Industrial Development Zone, Wuxi, Jiangsu, China",31.491169,120.31191
Jabil Circuit Inc.,"No. 128 TongYuan Road, Suzhou Industrial Park, Suzhou, Jiangsu, China",31.270704,120.668472
Japan Aviation Electronics Industry Ltd.,"5-1 Oaza Seinofukuro 5-chome, Hirosaki, Aomori, Japan",40.6385955,140.4774694
Japan Aviation Electronics Industry Ltd.,"4102-6 Aza Takadaishinden, Oaza Izumida, Shinjo, Yamagata, Japan",38.8100914,140.3225603
Japan Display Inc.,"Xinyang road Dengwu Village, Qiaotou Town, Dongguan, Guangdong, China",22.933392,113.754573
Japan Display Inc.,"26-2 Yamadasenden, Kawakita, Nomi-gun, Ishikawa, Japan",36.4666106,136.5491861
Japan Display Inc.,"1-47 Iwauchi-machi, Nomi, Ishikawa, Japan",36.4534764,136.566882
Japan Display Inc.,"3300 Hayano, Mobara, Chiba, Japan",35.4180126,140.3044021
Japan Display Inc.,"No. 1 Central Avenue, Area B, Kunshan Free Trade Zone, Kunshan, Jiangsu, China",31.38559699999999,120.980736
Japan Display Inc.,"1-2480, Takematsumachi, Hakusan, Ishikawa, Japan",36.5385123,136.5562999
"Jarllytec Co., Ltd.","No. 13 Wugong 5th Road, Hsin Chung Dist, New Taipei City, Taipei, Taiwan",25.0631779,121.454999
"Jeou Uei Co., Ltd.","No. 5-1 GuGang Road, ChengQu Industrial Park, Economic Development Zone, Taicang, Jiangsu, China",31.4537843,121.0851535
"Jeou Uei Co., Ltd.","Building No. 4 of Row 5, Jiao Tang Industry Area, Bao’an District, Shenzhen, Guangdong, China",22.720645,113.808462
"Jiangsu Changjiang Electronics Technology Co., Ltd.","5 Yishun Street 23, Singapore",1.439902,103.842371
"Jinlong Holding Group Co., Ltd.","Jingang Blvd., Jinlong Science & Technology Park, Bei Baixiang Town, Yueqing, Wenzhou, Zhejiang, China",28.033999,120.86089
"Jinlong Holding Group Co., Ltd.","Sinco Industrial Park, Huai Bei Road, Huai De District, Humen,",33.955844,116.798265
JX Nippon Mining & Metals Corp.,"3 Kurami, Samukawa, Koza, Kanagawa, Japan",35.4051292,139.4163253
"Kantatsu Co., Ltd.","No. 8 Xinlong Road Xinpu Economic Development Zone, Lianyungang, Jiangsu, China",34.499409,118.910927
Kemet Corp.,"Av. las Americas 780 Ote., Colonia, Victoria, Tamaulipas, Mexico",23.765824,-99.15456599999999
Kemet Corp.,"No. 99 Yangpu Road, Suzhou, Jiangsu, China",31.307886,120.804373
Kemet Corp.,"Long Binh Techno Park (LOTECO) EPZ, Long Binh Ward, Bien Hoa, Dong Nai, Vietnam",10.9296626,106.884901
Kemet Corp.,"78/2 Moo 1, Wellgrow Industrial Estate, Bangna-Trad KM. 36 Road, Homsil, Bang Pakong, Chachoengsao, Thailand",13.5786659,100.9410386
Kemet Corp.,"Lot 336, Batamindo Industry Park, Jl. Gaharu, Muka Kuning, Nongsa, Kota Batam, Kepulauan Riau, Indonesia",1.054931,104.0393137
Kemet Corp.,"No. 9, Ri-xin Road, Xinglin Ji-mei Zone, Xiamen, Fujian, China",24.566090,118.037590
Kunshan Kersen Science & Technology,"No. 389 Kunjia Road, Kunshan, Jiangsu, China",31.362383,121.042052
Kunshan Kersen Science & Technology,"No. 5 Weiliu Road, Dong Tai, Jiangsu, China",32.8975481,120.2937526
Kinsus Interconnect Technology Corp.,"No. 1245, Junghua Road, Shin-Wu Shiang, Taoyuan, Taiwan",24.736944,121.350833
Kinsus Interconnect Technology Corp.,"No. 526, Sec. 2, Jianxing Road, Xinfeng, Hsinchu, Taiwan",24.8930011,120.9877265
Knowles Corp.,"Plot 104, Lebuhraya Kampung Jawa, Bayan Lepas Industrial Estate, Penang, Malaysia",5.3193019,100.292583
Knowles Corp.,"379 Middle Suhong Road, Suzhou Industrial Park, Suzhou, Jiangsu, China",31.3261567,120.6667163
Koch Industries Inc.,"No. 889. Ying Lun Road, Wai Gao Qiao Free Trade Zone, Shanghai, China",31.349964,121.588425
Koch Industries Inc.,"27 Guangshun Street, Dalian Economic and Technical Development Zone, Dalian, Liaoning, China",38.91400300000001,121.614682
Koch Industries Inc.,"3949-3 Kawanishi, Kanoya, Kagoshima, Japan",31.36332999999999,130.865246
Koch Industries Inc.,"No. 110 International Road, Jurong Town, Singapore",1.328518,103.680095
Koch Industries Inc.,"2607 Jalan Perusahaan Kawasan Perindustrian, Perai, Penang, Malaysia",5.3387346,100.4296148
Koch Industries Inc.,"1351-2 Sumiyoshi, Yoshida, Haibara-gun, Shizuoka, Japan",34.7576796,138.2539454
Koch Industries Inc.,"700 Kingbird Road, Lincoln, Nebraska, USA",40.851273,-96.73092899999999
Kyocera Group,"5850 Higashine-koh ohaza, Higashine, Yamagata, Japan",38.4313543,140.3910903
Kyocera Group,"1-1 Kokubuyamashita-cho, Kirishima-shi, Kagoshima, Japan",31.7408988,130.7629974
Kyocera Group,"1810 Taki-cho, Satsumasendai, Kagoshima, Japan",31.8135171,130.3042445
Kyocera Group,"560 Nyuzen, Nyuzen-machi, Shimoniikawa-gun, Toyama, Japan",36.9392627,137.5002748
Kyocera Group,"8 Jing Ci Road, New City District, Shilong Town, Dongguan, Guangdong, China",23.113890,113.840000
Kyocera Group,"3-11-1 Osachi Kohagi, Okaya, Nagano, Japan",36.086598,138.048986
Kyocera Group,"1 Mikata, Ayabe, Kyoto, Japan",35.2989163,135.258812
Laird Technologies Inc.,"Building 1, Dejin Industrial Park, Fuyuanyi Road, Heping Community, Fuyong Town, Bao An District, Shenzhen, Guangdong, China",22.663903,113.828423
Laird Technologies Inc.,"No. 398 Yuandian Road, Xin Zhuang Industrial Zone, Shanghai, China",31.049083,121.3727742
Laird Technologies Inc.,"No. 8 Pengfeng Road, Songjiang, Shanghai, China",30.999119,121.147089
Laird Technologies Inc.,"28 Huanghe South Road, Kunshan Economic & Tech Development Zone, Kunshan, Jiangsu, China",31.361651,120.977431
"Largan Precision Co., Ltd.","No. 18 Tutong First Industrial District, Tutong, Changping, Dongguan, Guangdong, China",22.974898,113.993115
"Largan Precision Co., Ltd.","No. 11 Jingke Road, Nantun District, Taichung, Taiwan",24.1445878,120.6029787
"Lens One Technology (Shenzhen) Co., Ltd.","Lens Technology Zone, Liuyang Biomedical Industrial Estate, Changsha Hunan, China",28.162833,113.643076
"Lens One Technology (Shenzhen) Co., Ltd.","Huangxing Road, Langli Town, Changsha, Hunan, China",28.3649745,113.2031936
LG Chem Ltd.,"No. 17 Hengyi Road, Nanjing Economic & Technology Development Zone, Nanjing, Jiangsu, China",32.1557582,118.887482
LG Chem Ltd.,"8B Ochang Scientific Local Industrial Complex 1114-Namchon-ri Oksan-Myeon, Cheongwon-Gun, Chungcheongbuk-Do, Korea",36.6957795,127.4153256
"LG Display Co., Ltd.","181, 3gongdan 2-ro, Gumi, Gyeongsangbuk-do, Korea",36.0965757,128.403828
"LG Display Co., Ltd.","No. 59 Kaitai Road, Science City of Guangzhou, High-Tech Industrial Development Zone, Guangzhou, Guangdong, China",23.12911,113.264385
"LG Display Co., Ltd.","No. 1 LG Road, LG Industrial Park, Nanjing Economic & Technology Development Zone, Nanjing, Jiangsu, China",32.1514196,118.8927744
"LG Display Co., Ltd.","245 LG-ro, Wollong-myeon, Paju, Gyeonggi-Do, Korea",37.8133325,126.7612555
"LG Display Co., Ltd.","No. 2 Beijing Middle Road, Development Zone, Yantai, Shandong, China",37.6250929,121.1287433
"LG Display Co., Ltd.","174, 3gongdan 2-ro, Gumi, Gyeongsangbuk-do, Korea",36.0947837,128.4089338
"LG Display Co., Ltd.","No. 283 JingLong Road, Taimei Town Boluo County, Huizhou, Guangdong, China",22.6567608,114.0213702
"LG Innotek Co., Ltd.","66 Suchul-daero 9-gil, Gumi, Gyeongsangbuk-do, Korea",36.1161253,128.3813419
"LG Innotek Co., Ltd.","50-9 Suchul-daero 7-gil, Gumi, Gyeongsangbuk-do, Korea",36.116175,128.3793249
"LG Innotek Co., Ltd.","93, 2sunhwan-ro 971beon-gil, Heungdeok-gu, Cheongju, Chungcheongbuk-Do, Korea",36.6488694,127.4301839
"LG Innotek Co., Ltd.","Lot I-4, Trang Due Industrial Park, An Duong district, Hai Phong City, Haiphong, Vietnam",20.8574107,106.5715707
"LG Innotek Co., Ltd.","130-65 Sanho-daero, Gumi, Gyeongsangbuk-do, Korea",36.142496,128.4537631
"LG Innotek Co., Ltd.","77 Sanho-daero, Gumi, Gyeongsangbuk-do, Korea",36.090621,128.3834718
Lite-On Technology Corp.,"No. 11 Fuyuan Road, Wuqing Development Area, Tianjin, China",39.402712,117.067153
Lite-On Technology Corp.,"59 Hong Jing Road, Eastern Section, GETDD, Guangzhou, Guangdong, China",23.124787,113.531013
Lite-On Technology Corp.,"Av. Torquato Tapajos 7891, Tarumã, Manaus, Brazil",-3.0016583,-60.03195669999999
Lite-On Technology Corp.,"No. 8 Guangbao Road, Science City, Luogang Area, Guangzhou, Guangdong, China",23.171967,113.450985
Lite-On Technology Corp.,"1-3/F, Block 9 & 1F, Block 8, Brightman Industrial Zone, Busha Road, Shenzhen, Guangdong, China",22.6069567,114.149691
Lite-On Technology Corp.,"No. 1 Zhen’an Road, Shangjiao Section, Chang’an Town, Dongguan, Guangdong, China",22.7896297,113.807271
Lite-On Technology Corp.,"No. 88, Yanghu Road, Wujin Hi-Tech Industrial Development Zone, Changzhou, Jiangsu, China",31.630298,119.9404362
Longwell Company,"No. 19, 2nd industrial avenue, Tang Xia Chong village, Song Gang town, Paoan Ward,, Shenzhen, Guangdong, China",22.7997344,113.8451126
Luen Fung Group,"No. 50, Ke Ji Road, Yuquan Industrial District South, Fenggang Town, Dongguan, Guangdong, China",22.746191,114.136954
Luen Fung Group,"No. 48, Ke Ji Road, Yuquan Industrial District South, Fenggang Town, Dongguan, Guangdong, China",22.746191,114.136954
LUXSHARE-ICT,"No. 399, Baisheng Road, Kunshan, Jiangsu, China",31.1766056,120.9573475
LUXSHARE-ICT,"No. 8 Yongyang Road, National economic & Technological Development Zone, Chuzhou, Anhui, China",32.313050,118.311610
LUXSHARE-ICT,"No. 158 Jinchang Road, Jinxi Town, Kunshan, Jiangsu, China",31.171888,120.902582
LUXSHARE-ICT,"No. 1, Lvyin Road, Industrial Park, Ji’an, Jiangxi, China",27.0192641,114.9182633
LUXSHARE-ICT,"Fuchuan Road (East side), Ji’an, Jiangxi, China",27.0336528,114.9148826
Marian Inc.,"Floor 2, Building 3, Chaohuilou Technology Industrial Park, 180 Huating Road, Da Lang, Longhua, Shenzhen, Guangdong, China",22.685097,113.9966097
Marian Inc.,"Unit 1B, Suchun Industrial Square, 428 Xinglong Street, Suzhou Industrial Park, Suzhou, Jiangsu, China",31.31967899999999,120.655913
Marian Inc.,"Unit 5B, B Area, EPZ, No. 158 Qiming Road, Suzhou Industrial Park, Suzhou, Jiangsu, China",31.3388236,120.8374444
Maxim Integrated Products Inc.,"160 Rio Robles, San Jose, California, USA",37.4054899,-121.9499774
Maxim Integrated Products Inc.,"14320 SW Jenkins Road, Beaverton, Oregon, USA",45.5019793,-122.8247273
Maxim Integrated Products Inc.,"4401 South Beltwood Parkway, Dallas, Texas, USA",32.9481684,-96.83314690000002
Maxim Integrated Products Inc.,"Gateway Business Park, Special Export Processing Zone, Baranggay Javalera, Gen Trias, Cavite, Philippines",14.2688113,120.9227897
"Merry Electronics Co., Ltd.","No. 800 Kang Yuan Road, Xiang Cheng Economic Development Zone, Suzhou, Jiangsu, China",31.39523399999999,120.646835
Microchip Technology Inc.,"2325 Orchard Parkway, San Jose, California, USA",37.376767,-121.927641
Microchip Technology Inc.,"ACP Bldg., 102 Accuracy Drive, Corner Excellence Ave, Carmelray Industrial Park, 1, Canlubang, Calamba, Laguna, Philippines",14.2129068,121.090343
Microchip Technology Inc.,"1150 E. Cheyenne Mountian Blvd., Colorado Springs, Colorado, USA",38.7889789,-104.8061942
Microchip Technology Inc.,"Unit 6, Mitchell Point, Ensign Way, Hamble-le-Rice, Hampshire, United Kingdom",50.8564199,-1.3278847
Microchip Technology Inc.,"44306 Nantes Cedex 3, Nantes, France",47.23970600000001,-1.55595
Microchip Technology Inc.,"Vestre Rosten 79, Tiller, Norway",63.3639886,10.3728191
Microchip Technology Inc.,"14 Moo 1, T. Wangtakien, A., Muangchachemgsao, Chachoengsao, Thailand",13.7268917,101.0409269
Micron Technology Inc.,"7-10, Yoshikawa Kogyo Danchi, Higashi, Hiroshima, Japan",34.3869797,132.6833888
Micron Technology Inc.,"No. 429-1 Sanfong Road, Houli District Central Taiwan Science Park, Taichung, Taiwan",24.2103185,120.6189414
Micron Technology Inc.,"667, Fuhsing 3rd Road, HwaYa Technology Park, Guishan Township, Taoyuan, Taiwan",25.0510595,121.3778168
Micron Technology Inc.,"Zone B of Shanxi Xi’an Export Processing Zone, Xin Xi Ave, Xi’an, Shanxi, China",34.35486600000001,108.925422
Minebea Mitsumi Inc.,"No. 1 Tongsheng Road, Suzhou Industrial Park, Suzhou, Jiangsu, China",31.3139917,120.6645144
Minebea Mitsumi Inc.,"Ban Wa (Hi-Tech) Industrial Estate, 92 Moo 1, Tambon Banlen, Bang Pa-In, Ayutthaya, Thailand",14.2469212,100.6082859
Minebea Mitsumi Inc.,"5/2 Moo 8, Phaholyothin Road, Km.149 Tambon Nikhom Sang Ton-Eng, Amphoe Muang, Lopburi, Thailand",14.7777702,100.692848
Minebea Mitsumi Inc.,"No. 5202, LianXi Road, Jinze Town, Qingpu District, Shanghai, China",31.075476,120.959938
Minebea Mitsumi Inc.,"No. 2, Dayangzhou Road, Qingdao West Coast Export Processing Zone, Qingdao, Shandong, China",35.9873886,120.1578027
Minebea Mitsumi Inc.,"1007-39, Izumisawa, Chitose, Hokkaido, Japan",42.7779998,141.6129072
Minebea Mitsumi Inc.,"MRI Special Economic Zone, Sabang, Danao, Cebu, Philippines",10.4910219,124.0277821
"Murata Manufacturing Co., Ltd.","Chi-53, Ohmachi, Anamizu-Machi, Housu, Ishikawa, Japan",37.2280506,136.9030479
"Murata Manufacturing Co., Ltd.","Ozowara, Echizen-cho, Nyu-gun, Fukui, Japan",35.9307727,136.0637036
"Murata Manufacturing Co., Ltd.","Chi-18, Sodanimachi, Hakusan, Ishikawa, Japan",36.492819,136.6192564
"Murata Manufacturing Co., Ltd.","10-28 Hananomori 2-chome, Awara, Fukui, Japan",36.2213238,136.2194371
"Murata Manufacturing Co., Ltd.","Plot 15, Bemban Industrial Park Jalan Bemban, Batu Gajah, Perak, Malaysia",4.4639194,101.0015391
"Murata Manufacturing Co., Ltd.","Northern Region Industrial Estate, 63 Moo 4, Tambol Ban Klang, Lamphun, Thailand",18.58946,99.05320739999999
"Murata Manufacturing Co., Ltd.","4-1 Higashiokino 4-chome, Higashiomi, Shiga, Japan",35.1026209,136.215834
"Murata Manufacturing Co., Ltd.","11-1 Nakae 4-chome, Sanuma, Hasama-cho, Tome, Miyagi, Japan",38.6887868,141.1891285
"Murata Manufacturing Co., Ltd.","1020 Takibe, Toyoshina, Azumino, Nagano, Japan",36.2723253,137.9291149
"Murata Manufacturing Co., Ltd.","345 Uwano, Toyama, Japan",36.6417313,137.2124345
"Murata Manufacturing Co., Ltd.","2308 Kaminaoe, Hikawa-cho, Izumo-shi, Shimane, Japan",35.3782655,132.8308205
"Murata Manufacturing Co., Ltd.","77 Fukumoto, Oku-cho, Setouchi, Okayama, Japan",34.668437,134.091046
"Murata Manufacturing Co., Ltd.","1, 13-go, Okamotocho, Echizen, Fukui, Japan",35.9004538,136.1464268
"Murata Manufacturing Co., Ltd.","2-82, 1-chome, Miyukicho, Sabae, Fukui, Japan",35.974981,136.197144
"Murata Manufacturing Co., Ltd.","15 Cuijing Road, Shenzhen Grand Industrial Zone, Pingshan New District, Shenzhen, Guangdong, China",22.7124227,114.3895085
"Murata Manufacturing Co., Ltd.","No. 6 Xingchuang 1st Road, Wuxi Export Processing Zone B Zone, Wuxi, Jiangsu, China",31.5353408,120.3804655
"Murata Manufacturing Co., Ltd.","Lo A1 Hoa Khanh Inductrial Zone, Lien Chieu District, Da Nang, Vietnam",16.0833431,108.1287625
"Murata Manufacturing Co., Ltd.","No. 6, 9A Road, Bien Hoa Industrial Zone No. 2, Dong Nai, Vietnam",10.9246756,106.8748749
"Murata Manufacturing Co., Ltd.","Lishan Village, Qianwu Town, Doumen, Zhuhai, Guangdong, China",22.158515,113.232687
"Murata Manufacturing Co., Ltd.","190 Kashiwagi, Komoro, Nagano, Japan",36.3157547,138.4537483
"Murata Manufacturing Co., Ltd.","JI. Maligi VIII Lot S-4, Kawasan Industri KIIC, Desa Margakaya, Kecamatan Teluk Jambe, Barat Karawang 41361, Kabupaten Bekasi, Jawa Barat, Indonesia",-6.385892999999999,107.268048
"Murata Manufacturing Co., Ltd.","Land Lot No. 55 - Long Jiang Industrial Park, Tan Lap Ward, Phuoc Tan District, Tan Lap Ward, Tien Giang, Vietnam",10.4493324,106.3420504
"Murata Manufacturing Co., Ltd.","1-3 Thang Long Industrial Park, Dong Anh District, Hanoi, Vietnam",21.1238301,105.7777442
"Murata Manufacturing Co., Ltd.","No. 27 Changjiang Road, New District, Wuxi, Jiangsu, China",31.5579683,120.3377401
"Murata Manufacturing Co., Ltd.","1 Tuas Road, Singapore",1.3291183,103.6531543
"MYS Group Co., Ltd.","MYS Qiaotou district , East industrial Park, Qiaotou, Dongguan, Guangdong, China",23.024132,114.10316
"MYS Group Co., Ltd.","699 NanXiang Road WuJiang Economic Development Zone, Suzhou, Jiangsu, China",31.1196216,120.6972409
Nan Ya Plastics Corp.,"201, ChangJiang South Road, Kunshan Economic & Technical Development Zone, Kunshan, Jiangsu, China",31.335116,120.966776
Nan Ya Plastics Corp.,"No. 338, Sec. 1 Nankan Road, Taoyuan, Taiwan",25.0462073,121.2953089
Nan Ya Plastics Corp.,"No. 98 Nanlin Road, Taishan District, New Taipei City, Taipei, Taiwan",25.0475248,121.4144029
Nichia Corp.,"38-2 Kawamukoichi, Ichiba, Oasa-Cho, Naruto, Tokushima, Japan",34.1329877,134.5264556
Nichia Corp.,"491 Oka, Kaminaka-cho, Anan, Tokushima, Japan",33.9218284,134.6595268
Nichia Corp.,"1-19, Tatsumi-Cho, Anan, Tokushima, Japan",33.9218284,134.6595268
Nidec Corp.,"136 North Science Avenue Extension, Laguna Technopark Special Economic Zone, Binan, Laguna, Philippines",14.2762934,121.0618166
Nidec Corp.,"Street No. 18, Tan Thuan Export Processing Zone, District 7, Ho Chi Minh, Vietnam",10.752371,106.729859
Nidec Corp.,"Lot I-1d-1, Road N1, SHTP, District 9, Ho Chi Minh, Vietnam",10.8575101,106.7965607
Nidec Corp.,"12 HuanCheng North Road, Hongye, Industrial District, Tangxia Town, Dongguan, Guangdong, China",22.806457,114.073302
Nishoku Technology Inc.,"No. 308 Yangguang Road, Nangang, Zhangpu Town, Kunshan, Jiangsu, China",31.279846,120.886122
"Nissha Co., Ltd.","1-1 Hinokigaoka, Minakuchi-cho, Koka, Shiga, Japan",34.99542,136.1571345
"Nissha Co., Ltd.","50 Kamiyobe, Yobe-ku, Himeji, Hyogo, Japan",34.8033833,134.5719914
"Nissha Co., Ltd.","Ro 49-1 Uwagimachi, Daishoji, Kaga, Ishikawa, Japan",36.30062170000001,136.3142106
"Nissha Co., Ltd.","1-2-2 Anotsudai, Tsu city, Mie, Japan",34.7870747,136.5010735
"Nisshin Steel Co., Ltd.","11-1 Showa-cho, Kure, Hiroshima, Japan",34.2486458,132.5654407
"Nisshin Steel Co., Ltd.","4976 Nomura Minamimachi, Shunan, yamaguchi, Japan",34.0622591,131.7816437
Nitto Denko Corp.,"474 Hyeongok-Ri, Cheongbuk-Myeon, Pyeongtaek, Gyeonggi-Do, Korea",37.0333353,126.9431993
Nitto Denko Corp.,"1043 Gupo-dong, Gumi, Gyeongsangbuk-do, Korea",36.1360998,128.4347388
Nitto Denko Corp.,"No. 468 Suhongzhong Road, Suzhou Industrial Park, Suzhou, Jiangsu, China",31.298974,120.585289
Nitto Denko Corp.,"919 Fuke-cho, Kameyama, Mie, Japan",34.8557554,136.4516451
Nitto Denko Corp.,"455-6 Hongo, Minogo-cho, Onomichi, Hiroshima, Japan",34.4451297,133.1839436
Nitto Denko Corp.,"18 Hirayama Nakahara, Toyohashi, Aichi, Japan",34.71489469999999,137.4788163
Nitto Denko Corp.,"Bangkai Road, Guangming Hi-Tech Park, Shenzhen, Guangdong, China",22.763872,113.940897
NOK Corp.,"1650-11-1 Okuhara-cho, Ushiku, Ibaraki, Japan",35.9793751,140.1495237
NOK Corp.,"No. 166-21 Liaozibu, Madou District, Tainan, Taiwan",23.1763401,120.2397336
NOK Corp.,"2626-19 Sunayama, Kamisu, Ibaraki, Japan",35.8600465,140.7222581
NOK Corp.,"560 Moo 2 Bangpa-in Industrial Estate, Udomsorayuth Road, T.Klong-Jik, Bang Pa-In, Ayutthaya, Thailand",14.2219527,100.611384
NOK Corp.,"No. 48 Chung-Heng Street, Hsiao-Kang District, Kaohsiung, Taiwan",22.5553185,120.3608455
NOK Corp.,"No. 1 Shuang Deng Road Weiting Town, Suzhou Industrial Park, Suzhou, Jiangsu, China",31.353065,120.743149
NOK Corp.,"No. 2006 Huang Yang Road, Doumen Town Doumen District, Zhuhai, Guangdong, China",22.2367958,113.2765912
NOK Corp.,"No. 20 Dayou 1st Street, Da-Liao District, Kaohsiung, Taiwan",22.589198,120.427048
NOK Corp.,"1 Floor, No. 22 Xiang-Ming Road, Xiang-An District, Xiamen, Fujian, China",24.6333438,118.2443553
NOK Corp.,"No. 2 PingGong Zhong Road Nanping Science Technology Industrial District, Zhuhai, Guangdong, China",22.212484,113.471275
NOK Corp.,"189, 198, 296 Moo 16 Bangpa-in Industrial Estate, Udomsorayuth Road, T.Bangkrasan, Bang Pa-In, Ayutthaya, Thailand",14.190544,100.582762
NXP Semiconductors N.V.,"10 Chin 5th Road N.E.P.Z., Kaohsiung, Taiwan",22.7185572,120.3034181
ON Semiconductor Corp.,"333 Western Avenue, South Portland, Maine, USA",43.6407309,-70.3252011
ON Semiconductor Corp.,"Crestwood Industrial Park, 125 Crestwood Road, Mountain Top, Pennsylvania, USA",41.1428361,-75.89288789999999
ON Semiconductor Corp.,"420-711 82-3, Dodang-Dong, Wonmi-District, Bucheon, Gyeonggi-Do, Korea",37.512694,126.7862105
ON Semiconductor Corp.,"Mactan Export Zone I, Lapulapu, Cebu, Philippines",10.3004067,123.9628086
ON Semiconductor Corp.,"27A People West Road, Leshan, Sichuan, China",29.552115,103.765678
ON Semiconductor Corp.,"Golden Mile Business Park, Special Economic Zone, Governor’s Drive, Barrio Maduya, Carmona, Cavite, Philippines",14.3256973,121.0664656
ON Semiconductor Corp.,"Bozeny Nemcove 1720, Rožnov Pod Radhoštěm, Czech Republic",49.45678669999999,18.1476959
ON Semiconductor Corp.,"Gresham Fab, 23400 NE Glisan Street, Gresham, Oregon, USA",45.5275829,-122.4236657
ON Semiconductor Corp.,"2300 West Buckskin Road, Pocatello, Idaho, USA",42.8659351,-112.4148535
ON Semiconductor Corp.,"Westerring 15, B-9700, Oudenaarde, Belgium",50.8594899,3.5969393
ON Semiconductor Corp.,"1401 N. Kings Road, Nampa, Idaho, USA",43.5963888,-116.5345548
ON Semiconductor Corp.,"Lot 122 Senawang Industrial Estate, Seremban, Negeri Sembilan, Malaysia",2.678701,101.978871
ON Semiconductor Corp.,"Lot 55 Senawang Industrial Estate, Seremban, Negeri Sembilan, Malaysia",2.6831804,101.9835842
ON Semiconductor Corp.,"Block A&B, No. 110, Liuxiancun Road, Xili Town, Nanshan District, Shenzhen, Guangdong, China",22.541234,113.916109
ON Semiconductor Corp.,"3000 Chiyakou, Ojiya, Niigata, Japan",37.3143385,138.7950996
ON Semiconductor Corp.,"LIP SEPZ San Miguel, Tarlac City, Tarlac State, Philippines",15.4454318,120.6036222
Pai Shing International Ltd.,"22 Xing Yang Road, Tian Xin, Qiao Tou, Dongguan, Guangdong, China",34.787375,113.38322
Pai Shing International Ltd.,"No. 638 Hua Yuan Road, Zhangpu Town, Kunshan, Jiangsu, China",31.3974858,120.9422872
Panasonic Corp.,"No. 3 Bedok South Road, Singapore",1.3205285,103.9285312
Panasonic Corp.,"No. 49 Tokyo Road, Free Trade Zone, Qingdao, Shandong, China",35.984284,120.178222
Panasonic Corp.,"25 Kowata Nishinaka, Uji, Kyoto, Japan",34.925721,135.7961435
Panasonic Corp.,"401 Sadamasa, Fukui, Japan",36.0640669,136.2194938
Panasonic Corp.,"1037-2 Kamiosatsu, Chitose, Hokkaido, Japan",42.8426289,141.6168221
Panasonic Corp.,"1111-1 Shimokannuki-Kawanabe, Tsuyama, Okayama, Japan",35.0598981,134.0446476
Panasonic Corp.,"No. 1 Xinghua 5th Branch, Xi Qing Economic Development Zone, Tianjin, China",39.0191965,117.2160408
Panasonic Corp.,"271 Higashi Kaihatsu, Tonami, Toyama, Japan",36.6475336,136.9620085
Panasonic Corp.,"4-5-1 Kurihara, Myoko, Niigata, Japan",37.0513882,138.2631178
Panasonic Corp.,"217 Omachi-cho, Omachi, Saga, Japan",33.2137535,130.1160837
Panasonic Corp.,"Jalan Raya Jakarta Bogor Km 35, Kel. Sukamaju Baru, Kec. Tapos, Jawa Barat, Indonesia",-6.401752,106.863759
Panasonic Corp.,"Kawasan Industri MM2100 Blok. O-1-1 Kecamatan Cikarang Barat, Kabupaten Bekasi, Jawa Barat, Indonesia",-6.308702299999999,107.0815485
Panasonic Corp.,"Jl.Teuku Umar Km 44 Clkarang Barat, Bekasi, Jawa Barat, Indonesia",-6.262835,107.0953827
Panasonic Corp.,"No. 86 Sunwu Road, Xukou, Wuzhong District, Suzhou, Jiangsu, China",31.250025,120.4939
Pegatron Corp.,"No. 88 Tinghua Road, Tinlin Town, Jinshan District, Shanghai, China",30.8847685,121.3500061
Pegatron Corp.,"No. 3636 Shengang Road, Xinqiao Town, Songjiang Industrial Zone, Shanghai, China",31.0208963,121.3262856
Pegatron Corp.,"No. 1168 Ronghua Road, Songjiang Export/Import Park, Shanghai, China",31.039295,121.302534
Pegatron Corp.,"No. 113 Lane171 Lin-sheng Road, Tinglin Town, Jinshan District, Shanghai, China",30.8839385,121.3445898
Pegatron Corp.,"No. 88 Kaedar Road, Kunshan High-tech Industrial Park, Kunshan, Jiangsu, China",31.38559699999999,120.980736
Pegatron Corp.,"No. 3668 XiuYan Road, KangQiao Town, PuDong New District, Shanghai, China",31.137687,121.616809
Pegatron Corp.,"West of Rose Road and South of Bailing Road, Kunshan Development Area, Kunshan, Jiangsu, China",31.3027337,121.0196535
Pegatron Corp.,"5F, Sagawa Tokyo Logisitcs Center, 2-2-11 Shinsuna Koto-ku, Tokyo, Japan",35.6673071,139.8271894
Pegatron Corp.,"No. 3768 XiuYan Road, Kang Qiao Town, Pu Dong New District, Shanghai, China",31.137629,121.601355
Pegatron Corp.,"2 Changi South Street 2, Singapore",1.331812,103.964634
Pegatron Corp.,"670 Gasan-dong, Geumcheon-gu, Seoul, Korea",37.4681345,126.8861139
Pegatron Corp.,"Na Rovince 862, 720 00 Ostrava, Hrabova, Czech Republic",49.77167,18.2653255
Pegatron Corp.,"3011 Laguna Blvd., Elk Grove, California, USA",38.429289,-121.471177
Pegatron Corp.,"Bailing Road Southside, Meigui Road Westside, Kunshan, Jiangsu, China",31.302553,121.014265
Pegatron Corp.,"Building 4, No. 168 Daqiao Road, Shanghai, China",31.2303904,121.4737021
Pegatron Corp.,"No. 5 Shing Yeh Street, Kwei Shan Hsiang, Taoyuan, Taiwan",24.9936281,121.3009798
Pegatron Corp.,"No. 357 Jinfeng Road, New District Suzhou, Suzhou, Jiangsu, China",31.330258,120.523589
Pegatron Corp.,"No. 89 Changjiang Road, Jiashan Economic Development Zone, Jiaxing, Zhejiang, China",30.846918,120.949351
"Phone In Mag-Electronics Co., Ltd.","3rd Industrial Zone, Sijia Village, ShiJie Town, Dongguan, Guangdong, China",23.041047,113.711427
"Phone In Mag-Electronics Co., Ltd.","No. 30-8 Dongwaihuan Road, High-Tech Development Zone, Xinyang, Henan, China",32.147679,114.091192
"Phone In Mag-Electronics Co., Ltd.","No. 899 Mingshu Road, Yinzhou District, Ningbo, Zhejiang, China",29.7627658,121.5204671
"Pioneer Material Precision Tech Co., Ltd.","No. 1 Jiao Ping Avenue, Ke Yuan Cheng Industrial Park, Tangxia Town, Dongguan, Guangdong, China",22.7788072,114.0591059
"Pioneer Material Precision Tech Co., Ltd.","No. 999 Avenue of Stars, Phoenix Lake Industrial Park, Yongchuan District, Chongqing, China",29.35611699999999,105.927375
"Pioneer Material Precision Tech Co., Ltd.","No. 45 Nan Hu Road, Wuzhong Economic Development Zone, Suzhou, Jiangsu, China",31.62943,120.80899
"Pioneer Material Precision Tech Co., Ltd.","No. 11 Wuquan 2nd Road, Wugu District, New Taipei City, Taipei, Taiwan",25.0650781,121.4555302
Platinum Optics Technology Inc.,"No. 37 Keji 2nd Road., Hua Ya Technology Park, Gueishan Township, Taoyuan, Taiwan",25.0497757,121.3793965
POSCO,"603 Seonggok-dong, Danwon-gu, Ansan, Gyeonggi-Do, Korea",37.3129284,126.7624792
Prent Corp.,"No. 2275 Chengliu Zhonglu, Jiading District, Shanghai, China",31.37586899999999,121.265374
Primax Electronics Ltd.,"Er Village, Liu Wu District, Shek Kit Town, Dongguan, Guangdong, China",23.050830,113.742780
Primax Electronics Ltd.,"No. 2688 Tong Xin Road, Yu Shan Town, Kunshan, Jiangsu, China",31.4110469,120.9649266
Qorvo Inc.,"17 Middle Tongji Road, Beijing, China",39.786807,116.529906
Qorvo Inc.,"7628 Thorndike Road, Greensboro, North Carolina, USA",36.0763408,-79.9651702
Qorvo Inc.,"No. 6868 Dongfanghong East Road, DeZhou Economic & Technology Development Area, Dezhou, Shandong, China",37.4358525,116.4090581
Qorvo Inc.,"2300 N.E. Brookwood Parkway, Hillsboro, Oregon, USA",45.539874,-122.9369155
Qorvo Inc.,"Zona Franca Metropolitana, Barreal De Heredia, Apartado 144-3006, Haredia, Costa Rica",9.9795774,-84.1467866
Qorvo Inc.,"500 W. Renner Road, Richardson, Texas, USA",32.9994224,-96.727543
Qorvo Inc.,"1818 S. Orange Blossom Trail, Apopka, Florida, USA",28.649273,-81.46673299999999
Quadrant Solutions,"No. 55 Xiacheng Road, Tonglu, Hangzhou, Zhejiang, China",29.7602523,119.6934059
Qualcomm Inc.,"Anzinger Strasse 13, Munich, Germany",48.12155,11.60848
Qualcomm Inc.,"166 Kallang Way, Singapore",1.3248277,103.8753495
Qualcomm Inc.,"No. 17 Xi Shi Road, Xin Wu District, Wuxi, Jiangsu, China",31.5243335,120.3909158
Qualcomm Inc.,"Siemensstrasse 43, Deutschlandsberg, Austria",46.8228428,15.2303445
Quanta Computer Inc.,"44350 Nobel Drive, Fremont, California, USA",37.4966862,-121.976895
Quanta Computer Inc.,"No. 68 Sanzhuang Road, Songjiang Export Processing Zone, Shanghai, China",31.0204637,121.2838918
Quanta Computer Inc.,"No. 8 Jinzhou Road, High-tech Industrial park, Changshu Economic Development Zone, Changshu, Jiangsu, China",31.70543499999999,120.705257
Radiant Opto Electronics Corp.,"No. 1621 Jiang Xin East Road, Economic Developing Area, Wujiang, Jiangsu, China",31.138677,120.645158
Radiant Opto Electronics Corp.,"No. 35 Hengtong Road, Nanjing Economic & Technology Development Zone, Nanjing, Jiangsu, China",32.060255,118.796877
Radiant Opto Electronics Corp.,"No. 11 Xinrui Road, Science City of Guangzhou High-Tech Industrial Development Zone, Guangzhou, Guangdong, China",23.157626,113.486733
Renesas Electronics Corp.,"111 Nishiyokote-machi, Takasaki, Gunma, Japan",36.3219088,139.0032936
Renesas Electronics Corp.,"Horiguchi 751, Hitachi-Naka, Ibaraki, Japan",36.3954064,140.5156422
Renesas Electronics Corp.,"Lot 54 Kulim, Industrial Estate. Seluang, Kulim, Kedah, Malaysia",5.43286,100.597482
Renesas Electronics Corp.,"Bayan Lepas Free, Industrial Zone, Bayan Lepas, Penang, Malaysia",5.308987,100.2832409
Renesas Electronics Corp.,"176 JinJiHuLu, Suzhou Industrial Park, Suzhou, Jiangsu, China",31.295658,120.667375
Renesas Electronics Corp.,"89 Nagasaki, Shiranui-cho, Uki, Kumamoto, Japan",32.7502856,129.877667
Robert Bosch GmbH,"Tuebinger Strasse 123, Reutlingen, Germany",48.4963823,9.1909226
"Rohm Co., Ltd.","883 Oaza-Kamikitajima, Chikugo, Fukuoka, Japan",33.1965512,130.4888998
"Rohm Co., Ltd.","837-1 Aza-Hatakeda, Oaza-Inado, Yukuhashi, Fukuoka, Japan",33.6990379,131.0277917
"Rohm Co., Ltd.","Lot 1320 Kawasan Perindustrian, Pengkalan Chepa II, Padang Tembak, Kota Bharu, Kelantan, Malaysia",6.139702499999999,102.301523
"Rohm Co., Ltd.","Block 3 and Block 5, People’s Avenue, People’s Technology Complex Special Economic Zone, Carmona, Cavite, Philippines",14.319486,121.0562468
"Rohm Co., Ltd.","21 Saiinmizosakicho, Ukyo Ward, Kyoto, Japan",34.9950176,135.7286192
"Rohm Co., Ltd.","100 Tomioka, Kasaoka, Okayama, Japan",34.4975558,133.5272678
"Rohm Co., Ltd.","101/94, 102 Navanakorn Industrial Zone, Moo 20, Phaholyothin Road, Tambol Khlong-Nueng, Khlong Luang, Pathum Thani, Thailand",14.115248,100.6030615
"Rohm Co., Ltd.","No. 7 Weisan Road, Micro-Electronic Industrial Park, Jingang Highway, Xiqing District, Tianjin, China",39.003712,117.244902
"Rohm Co., Ltd.","40 Munpyeongseo-ro, 17 Beonan-gil, Daedeok-gu, Daejeon, Korea",36.4442556,127.3981987
"Rohm Co., Ltd.","727 Kihara, Kiyotake-cho, Miyazaki, Japan",31.9076736,131.4202411
RR Donnelley & Sons Company,"2661 South Pacific Highway, Medford, Oregon, USA",42.2996454,-122.8460517
RR Donnelley & Sons Company,"No. 28 Huang Sha He West Road, Xin Jiu Wei Village, Liaobu Town, Dongguan, Guangdong, China",22.829305,113.625705
RR Donnelley & Sons Company,"No. 888 Ganghua Road, North Area of Chengdu Modern Industrial Park, Pixian, Chengdu, Sichuan, China",30.795396,103.948179
RR Donnelley & Sons Company,"Business Center Chrastany, Praha Západ, Czech Republic",50.0513471,14.3504033
RR Donnelley & Sons Company,"No. 7699 Songze Avenue, Qingpu Industrial Zone, Shanghai, China",31.172672,121.156526
RR Donnelley & Sons Company,"495-35 Hane, Hagiwara-cho, Gero, Gifu, Japan",35.8943986,137.20338
RR Donnelley & Sons Company,"No. 128 Chensong Road, Kunshan High and New Technology Industrial Development Zone, Kunshan, Jiangsu, China",31.3562117,120.8736816
SABIC Innovative Plastics,"1 Lexan Lane, Mt. Vernon, Indiana, USA",37.9052716,-87.9334228
SABIC Innovative Plastics,"No. 1 Sulia Road, Nansha, Panyu District, Guangzhou, Guangdong, China",22.7030757,113.5357583
SABIC Innovative Plastics,"No. 56 Aidu Road, Waigaoqiao Free Trade Zone, Shanghai, China",31.349964,121.588425
Salcomp Plc,"Salcomp Road No. 69 Furong Industrial Area Xinqiao, Shajing, Bao’an District, Shenzhen, Guangdong, China",28.740776,109.947653
Salcomp Plc,"Avenida dos Oitis, 4145, Distrito Industrial, Manaus, Brazil",-3.083902,-59.918826
Salcomp Plc,"Avenue Acai Number 875, Distrito Industrial, Manaus, Brazil",-3.1324001,-59.9760845
Salcomp Plc,"Nokia Telecom SEZ, SIPCOT Industrial Park, Sriperumbudur, Chennai, Tamilnadu, India",12.9477852,79.9353299
Salcomp Plc,"Junction of 6th West Road and 9th West Road, West River Industrial Park, Guigang, Guangxi, China",23.11153,109.598926
"Samsung Electronics Co., Ltd.","Samsung Street 181, Tangjeong-Myeon, Asan, Chungcheongnam-do, Korea",36.8003919,127.0516906
"Samsung Electronics Co., Ltd.","465 Beonyeong-ro, Seobuk-gu, Cheonan, Chungcheongnam-do, Korea",36.8785965,127.143142
"Samsung Electronics Co., Ltd.","318 Fang Zhou Road, Suzhou Industrial park, Suzhou, Jiangsu, China",31.316601,120.773978
"Samsung Electronics Co., Ltd.","12100 Samsung Blvd. (Cu FAB 3F), Austin, Texas, USA",30.359560,-97.647230
"Samsung Electronics Co., Ltd.","No. 158 Baebang-Ro Baebang-eup, Asan, Chungcheongnam-do, Korea",36.7660129,127.062473
"Samsung Electronics Co., Ltd.","1 Samsung-ro, Giheung-gu, Yongin, Gyeonggi-Do, Korea",37.2282712,127.073071
"Samsung Electronics Co., Ltd.","San #16 Banwol-dong, Hwaseong, Gyeonggi-Do, Korea",37.2283536,127.0593065
"Samsung Electronics Co., Ltd.","No. 337 Felingli Street, Suzhou Industrial Park, Suzhou, Jiangsu, China",31.329746,120.777078
"Samsung Electronics Co., Ltd.","Yen Phong Industrial Zo Yen Trung commune, Yen Phong district, Bac Ninh, Vietnam",21.2008486,105.9861042
"Samsung SDI. Co., Ltd.","Hengkeng Management Area Liaobu Town, Dongguan, Guangdong, China",23.025024,113.826232
"Samsung SDI. Co., Ltd.","333 Noksansaneopjung Road, Kanggeo-gu, Busan, Korea",35.1795543,129.0756416
"Samsung SDI. Co., Ltd.","No. 1 Weisan Road, Micro-Electronics Industrial Park, Xiqing District, Tianjin, China",39.005465,117.244017
"Samsung SDI. Co., Ltd.","27 Heiniucheng Road, Tianjin, China",39.079601,117.234415
"Samsung SDI. Co., Ltd.","No. 1 Qingling Road, Yat-Sen, Scientific Industrial Park, Wuqing Development Zone, Tianjin, China",39.407777,117.027553
"Samsung SDI. Co., Ltd.","508 Seongseong-Dong, Seobuk-Gu, Cheon An, Chungcheongbuk-Do, Korea",36.8429508,127.115978
Seagate Technology LLC,"90 Moo 9, Tampol Sungnoen, Sungnoen, Nakhon Ratchasima, Thailand",14.8641233,101.8435568
Seiko Advance Ltd.,"1575 Negane, Hasuda, Saitama, Japan",36.0202749,139.635638
"Sekisui Chemical Co., Ltd.","No. 718 Guangzhong Road, Xinzhuang Industry Park, Minhang, Shanghai, China",31.079274,121.385547
"Seoul Semiconductor Co., Ltd.","1B-92 Lot, Wonsi-dong, Danwon-gu, Ansan, Gyeonggi-Do, Korea",37.3130907,126.7813297
Shandong Innovation Group,"East End of Huixian 4th Road, Gaoxin Subdistrict, ZouPing, Shandong, China",36.9004065,117.7890728
Shanghai Industrial Holdings Ltd.,"No. 88 Jinying Road, Zhao Town, Jintang County, Chengdu, Sichuan, China",30.8497485,104.3869276
Shanghai Industrial Holdings Ltd.,"No. 9 Taidong Road, Zhuhai Economic Park, Jiaonan District, Qingdao, Shandong, China",35.8667782,120.0097295
Shanghai Industrial Holdings Ltd.,"Qiaotou Village, Dalun Town, Jiangyan, Jiangsu, China",32.5476451,120.0742581
Shanghai Industrial Holdings Ltd.,"The Intersection Of Wenming Road and Zhujiang Road, Huaxian New District, Zhengzhou, Henan, China",34.768262,113.770298
Sharp Corp.,"646-7 Shiraki Isshiki, Seki-cho, Kameyama, Mie, Japan",34.8527925,136.3908971
Sharp Corp.,"No. 7 VSIP II, Street 7, Vietnam-Singapore Park II, Hoa Phu Ward, Ho Chi Minh, Binh Duong, Vietnam",11.0774105,106.6799983
Sharp Corp.,"464 Kohgawa, Shiraki-cho, Kameyama, Mie, Japan",34.8766583,136.4148794
Sharp Corp.,"No. 21 Zhujiang Road, Wuxi National High and New Tech Industrial Development Zone, Wuxi, Jiangsu, China",31.527161,120.364441
Sharp Corp.,"A2 Facility, B22 -A Land Plot, Wuxi National High and New Tech Industrial Development Zone, Wuxi, Jiangsu, China",31.491169,120.31191
"Shenzhen Desay Battery Technology Co., Ltd.","Huizhou Zhongkai Hightech Industrial Development Zone, Huizhou, Guangdong, China",23.114234,114.424548
"Shenzhen Desay Battery Technology Co., Ltd.","No. 6 Zhongkai Hightech Industrial Development Zone, Huizhou, Guangdong, China",23.009052,114.317853
"Shenzhen Fortunta Technology Co., Ltd.","NiuJiaoLong, TianRun Industrial Park, Zhangkengjing, Guanlan, Bao’an District, Shenzhen, Guangdong, China",22.682554,114.074168
"Shenzhen O-Film Tech Co., Ltd.","No. 7 Shenzhou Road, Science Park of GETDD, Guangzhou, Guangdong, China",23.162433,113.437224
"Shenzhen O-Film Tech Co., Ltd.","O-film Industrial Park, Rule lake Avenue, Linkong Economic Development Zone, NanChang, Jiangxi, China",28.682892,115.858197
"Shenzhen Sunway Communication Co., Ltd.","No. 1013 Xihuan Road, Shajing Town, Bao’an District, Shenzhen, Guangdong, China",22.720595,113.829667
"Shenzhen Sunway Communication Co., Ltd.","No. 14 Jinxiu Street, BDA, Beijing, China",39.7877775,116.5263767
"Suzhou Dongshan Precision Manufacturing Co., Ltd","No. 88 Tang Dong Road, South Yin Zhong Road, River Eastern Industrial Park, Wuzhong Economic Development Zone, Suzhou, Jiangsu, China",31.264212,120.631898
"Suzhou Dongshan Precision Manufacturing Co., Ltd","No. 68 Nanhu Road, Dongwu Industrial Park, Wuzhong Economic Development Zone, Suzhou, Jiangsu, China",31.230859,120.645516
"Suzhou Dongshan Precision Manufacturing Co., Ltd.","No. 328 Suwang Road, Wuzhong District, Suzhou, Jiangsu, China",31.187408,120.553305
"Suzhou Dongshan Precision Manufacturing Co., Ltd.","No. 3019 Haizang West Road, Luzhi Town, Wuzhong District, Suzhou, Jiangsu, China",31.2694881,120.8573363
"Suzhou Zhongjiemai Panel Industry Technology Co., Ltd.","No. 2006 East Taihu Road, Hengjing Street, WuZhong District, Suzhou, Jiangsu, China",31.2629615,120.6503642
Swiftronic Holding Pte. Ltd.,"Yi He Road, No. 2 Shi Yan Street, Bao’an, Shenzhen, Guangdong, China",22.671905,113.94081
Swiftronic Holding Pte. Ltd.,"D Building, No. 875 Qiuxing Road, NiCheng Industrial Park, LinGang, Puding, Shanghai, China",30.9137275,121.7956481
"Taishan City Kam Kiu Aluminium Extrusion Co., Ltd.","Shiqiao Industrial zone, Dajiang Town, Taishan, Guangdong, China",22.111616,112.950605
"Taiwan Hodaka Technology Co., Ltd.","No. 2, Huandong Road, Sec. 1, Sinshih District, Tainan, Taiwan",23.1052986,120.2840219
"Taiwan Semiconductor Manufacturing Co., Ltd. (TSMC)","5509 NW Parker Street, Camas, Washington, USA",45.6195611,-122.455455
"Taiwan Semiconductor Manufacturing Co., Ltd. (TSMC)","Fab 12, No. 8, Li-Hsin Road VI, Hsinchu Science Park, Hsinchu, Taiwan",24.7823005,121.0062859
"Taiwan Semiconductor Manufacturing Co., Ltd. (TSMC)","No. 1 Keya 6th Road, Taichung, Taiwan",24.2136998,120.6172297
"Taiwan Semiconductor Manufacturing Co., Ltd. (TSMC)","No. 121 Park Avenue III, Hsinchu Science Park, Hsinchu, Taiwan",24.7823005,121.0062859
"Taiwan Semiconductor Manufacturing Co., Ltd. (TSMC)","No. 1 Nan-Ke North Road, Tainan Science Park, Tainan, Taiwan",23.1015164,120.2819165
"Taiwan Semiconductor Manufacturing Co., Ltd. (TSMC)","101 Longyuan 6th Road, Longtan Dist, Taoyuan, Taiwan",24.8836369,121.1855573
"Taiwan Semiconductor Manufacturing Co., Ltd. (TSMC)","1-1 Nan-Ke North Road, Tainan Science Park, Tainan, Taiwan",22.9997281,120.2270277
"Taiwan Semiconductor Manufacturing Co., Ltd. (TSMC)","168 Park Avenue II, Hsinchu Science Park, Hsinchu, Taiwan",24.7823005,121.0062859
"Taiyo Yuden Co., Ltd.","4026-22 Inanbar, Inami-cho, Hidaka-gun, Wakayama, Japan",33.8195617,135.2226666
"Taiyo Yuden Co., Ltd.","197-8 Kamiyoshi, Kubiki-ku, Joetsu, Niigata, Japan",37.1823673,138.2877436
"Taiyo Yuden Co., Ltd.","Mactan Economic Zone, Lapulapu, Cebu, Philippines",10.3004067,123.9628086
"Taiyo Yuden Co., Ltd.","1988 Nakanojo, Nakanojo-machi, Agatsuma-gun, Gunma, Japan",36.6748632,138.7850759
"Taiyo Yuden Co., Ltd.","1796-1 Kawai, Tamamura-machi, Sawa-gun, Gunma, Japan",36.2868123,139.1496797
"Taiyo Yuden Co., Ltd.","116 Bangji-Ri Sanam-Myun, Sachon, Gyeongsangnam-do, Korea",35.0653762,128.0623546
"Taiyo Yuden Co., Ltd.","No. 13 Keji Dong Road, Shi Jie Town, Dongguan, Guangdong, China",23.09964,113.8131
Tripod Technology Corp.,"No. 68 East 3rd FuRong Road, Development Zone, Xishan District, Wuxi, Jiangsu, China",31.7024311,120.5006207
Tripod Technology Corp.,"No. 21 Kung-yeh 5th Road, Ping-jen Industrial Park, Ping-jen City, Taoyuan, Taiwan",24.9936281,121.3009798
"Tsujiden Co., Ltd.","1313-168 Masuragaharamachi, Omura, Nagasaki, Japan",32.9347574,129.9862352
"Tsujiden Co., Ltd.","57-23 Azagomajiri, Hattandago, Higashisonogi, Nagasaki, Japan",33.0370255,129.9171493
TTM Technologies Inc.,"No. 238, Shanhu Road, Niushan Foreign Economy Industrial Zone, Dongcheng District, Dongguan, Guangdong, China",23.0486026,113.7447607
TTM Technologies Inc.,"No. 1 Xinle Road, Science City, Hi-Tech Industrial Development Zone, Guangzhou, Guangdong, China",23.159656,113.468373
TTM Technologies Inc.,"No. 200 Jiang Tian Dong Road East, Song Jiang Industrial Zone, Shanghai, China",31.2303904,121.4737021
TTM Technologies Inc.,"No. 685 Lian Yang Road, SongJiang Industrial Zone, Shanghai, China",31.034508,121.271686
UACJ Corp.,"3-1-12 Chitose Minato-ku, Nagoya, Aichi, Japan",35.1098944,136.8935796
UACJ Corp.,"No. 99 Shaojing Road, Kunshan Economical Technology Development Zone, Kunshan, Jiangsu, China",31.3545,121.053517
Unimicron Technology Corp.,"No. 177 Shan Ying Road, Kwei Shan Industrial Park, Taoyuan, Taiwan",24.9816583,121.3303542
Unimicron Technology Corp.,"No. 160 Fengli Street, Suzhou Ind. Park, Suzhou, Jiangsu, China",31.330317,120.778694
Unimicron Technology Corp.,"573-19 Toiso, Eniwa, Hokkaido, Japan",42.8849487,141.6089897
Unimicron Technology Corp.,"No. 38 Xingbang Road, Guishan Industrial Park, Taoyuan, Taiwan",24.982227,121.324397
Unimicron Technology Corp.,"No. 21 Lane 470, Sec.2, Nanshan Road, LuChu Township, Taoyuan, Taiwan",25.0722271,121.285575
Unisteel Technology Ltd.,"No. 358 Fengmao Road, Malu Town, Jiading District, Shanghai, China",31.352264,121.302201
Unisteel Technology Ltd.,"No. 988 Shang Xue Road, Malu Town, Jia Ding District, Shanghai, China",31.3594229,121.2944455
Unitech Printed Circuit Board Corp.,"No. 3 Lane 4, Chung-Shan Road, Tu-Cheng City, Taipei, Taiwan",24.9601504,121.4128716
Unitech Printed Circuit Board Corp.,"No. 36, Dingping Road, Su’ao Township, Yilan, Taiwan",24.6398767,121.8366294
Vishay Intertechnology Inc.,"46 Renmin 4 Road, Danshui Town, Huizhou, Guangdong, China",22.801004,114.455191
Vishay Intertechnology Inc.,"1122 23rd Street, Columbus, Nebraska, USA",41.4396755,-97.34125399999999
Vishay Intertechnology Inc.,"Av De La S Torres No. 1950, Ciudad Juarez, Chihuahua, Mexico",31.6263241,-106.3930393
Vishay Intertechnology Inc.,"Dr. Felix Zandman Platz 1, Selb, Germany",50.1826029,12.1379851
Vishay Intertechnology Inc.,"No. 88, 6th Avenue, Tianjin Economic Zone, Tianjin, China",39.06551899999999,117.692118
Vishay Intertechnology Inc.,"233 Pao Chiao Road Hsintien, Taipei, Taiwan",25.0329694,121.5654177
Vishay Intertechnology Inc.,"Dimona Industrial Park, Dimona, Israel",31.069419,35.033363
Vishay Intertechnology Inc.,"Ha-Kotzer 3 ST, Beer Sheva, Israel",31.252973,34.791462
Vishay Intertechnology Inc.,"20 Xinxi Avenue, Xi’an, Shanxi, China",34.166418,108.854848
Vishay Intertechnology Inc.,"FTI Estate Bagsaka Road Taguig, Manila, Metro Manila, Philippines",14.5047192,121.0504769
Vishay Intertechnology Inc.,"Fraunhoferstr. 1, Itzehoe, Germany",53.95744,9.482940000000001
Vishay Intertechnology Inc.,"No. 1710-1 Kawasan Perindustrian Krubong, Melaka, Malaysia",2.2874871,102.2419173
Vishay Intertechnology Inc.,"No. 58 Chang Xu Road, Jiading (Outside North Gate of Jading), Shanghai, China",31.4095024,121.2514891
Vishay Intertechnology Inc.,"Theresienstrasse 2, Heilbronn, Germany",49.1358,9.20618
Volex Plc.,"No. 1173 Shenhui Road, Henggang, Shenzhen, Guangdong, China",22.7598007,114.2980481
Western Digital Corp.,"No. 388 East Jiang Chuan Road, Minhang District, Shanghai, China",31.01428499999999,121.446834
Western Digital Corp.,"No. 1 Jinxiu Road West, Shenzhen Export Processing Zone, Pingshan District., Shenzhen, Guangdong, China",22.691253,114.346251
Western Digital Corp.,"203, 205 Moo 7, Tumbon Tha Tum, Amphur Srimahaphote, Prachin Buri, Thailand",13.9257787,101.5564138
Wickeder Group,"Hauptstraße 6, Wickede (Ruhr), North Rhine-Westphalia, Germany",51.49171219999999,7.8678537
Wickeder Group,"39 Perry Avenue, Attleboro, Massachusetts, USA",41.9484046,-71.27124839999999
Wistron Corp.,"No. 168 First Avenue, Kunshan Export Processing Zone, Kunshan, Jiangsu, China",31.34291,120.979297
Wistron Corp.,"Xiyiwei, Ma’an Cun, Zhongshan Torch Development Zone, Zhongshan, Guangdong, China",22.682586,113.36448
Wistron Corp.,"No. 38, Keji East Road, Zhongshan Torch Development Zone, Zhongshan, Guangdong, China",22.566927,113.448513
Wistron Corp.,"No. 92 & 93 Industrial Suburb II Stage, Yeshwanthpur, Bangalore, Karnataka, India",13.016870,77.505960
Wistron Corp.,"No. 30 A, 2nd Phase, Peenya Industrial Area, ABB Circle, Chokkasandra, Bangalore, Karnataka, India",13.0318632,77.51381920000001
Yageo Corp.,"No. 10 Zhu Yuan Roa., Suzhou New District, Suzhou, Jiangsu, China",31.310001,120.552826
Yageo Corp.,"No. 701 Gaoli Road, Gaoli Industrial Zone, Tangxia Town, Dongguan, Guangdong, China",22.806457,114.073302
Yageo Corp.,"No. 291, Zhongzheng Road, Dashe District, Kaohsiung, Taiwan",22.7394995,120.3484368
Yageo Corp.,"No. 350 Zhongzheng Road, Dashe District, Kaohsiung, Taiwan",22.7399037,120.3487146
Ying Shing Enterprises Ltd.,"No. 1-2 Production Buildings, Yan Fa Building, No. 88, The 9th Technology Road, High-tech Zone, Zhuhai, Guangdong, China",22.270978,113.576677
Zeniya Aluminum Engineering Ltd.,"Block B, No. 2 Industry 5th Road, Jiangbian, Songgang Community, Bao’an District, Shenzhen, Guangdong, China",22.8030583,113.8399104
Zeniya Aluminum Engineering Ltd.,"No. 130 Bubugao Road, Wusha Jiangbei Village, Changan Town, Dongguan, Guangdong, China",22.777966,113.781103
Zeniya Aluminum Engineering Ltd.,"No. 888 Bubugao Road, Wusha Jiangbei Village, Changan Town, Dongguan, Guangdong, China",22.7670516,113.7795196
Zeniya Aluminum Engineering Ltd.,"No. 307 Bubugao Road, Wusha Jiangbei Village, Changan Town, Dongguan, Guangdong, China",22.7665518,113.779475
Advanced Micro Devices Inc.,"2485 Augustine Drive, Santa Clara, California, USA",37.3829254,-121.9703842
Cirrus Logic Inc.,"800 W 6th Street, Austin, Texas, USA",30.2708146,-97.7506641
Dialog Semiconductor GmbH,"Neue Street 95, Baden-Wuerttemberg, Germany",48.6616037,9.3501336
OmniVision Technologies Inc.,"4275 Burton Drive, Santa Clara, California, USA",37.390719,-121.964293
Parade Technologies Ltd.,"2858 De La Cruz Blvd., Santa Clara, California, USA",37.3707103,-121.9448951
SiTime Corp.,"5451 Patrick Henry Drive, Santa Clara, California, USA",37.4099999,-121.984064
Synaptics Inc.,"1251 Mckay Drive, San Jose, California, USA",37.3916454,-121.8908582
"Silicon Works Co., Ltd.","104-13 Moonji-Dong, Daejeon, Korea",36.3504119,127.3845475